{"1":{"name":"\u00cdTR - Sk\u00f3garhl\u00ed\u00f0","url":"\/locations\/1","devices":"1","image":"\/datastore\/image\/\/thumb1","address":null,"lat":"64.131310","lng":"-21.915718","icon":"http:\/\/chart.apis.google.com\/chart?cht=mm&chs=20x20&chco=FF00FF,FF00FF,000000&ext=.png","icon_size":"20x20","icon_width":"20","icon_height":"20","icon_anchor_width":10,"icon_anchor_height":"20","zindex":1},"2":{"name":"F\u00e9lagsb\u00fasta\u00f0ir","url":"\/locations\/2","devices":"1","image":"\/datastore\/image\/\/thumb1","address":null,"lat":"64.145538","lng":"-21.933582","icon":"http:\/\/chart.apis.google.com\/chart?cht=mm&chs=20x20&chco=FF00FF,FF00FF,000000&ext=.png","icon_size":"20x20","icon_width":"20","icon_height":"20","icon_anchor_width":10,"icon_anchor_height":"20","zindex":1},"4":{"name":"Grasagar\u00f0ur , Laugardal","url":"\/locations\/4","devices":"4","image":"\/datastore\/image\/\/thumb1","address":null,"lat":"64.139801","lng":"-21.869509","icon":"http:\/\/chart.apis.google.com\/chart?cht=mm&chs=20x20&chco=FF00FF,FF00FF,000000&ext=.png","icon_size":"20x20","icon_width":"20","icon_height":"20","icon_anchor_width":10,"icon_anchor_height":"20","zindex":1},"5":{"name":"Ing\u00f3lfsnaust - Minjavernd","url":"\/locations\/5","devices":"0","image":"\/datastore\/image\/\/thumb1","address":null,"lat":"64.148560","lng":"-21.942036","icon":"http:\/\/chart.apis.google.com\/chart?cht=mm&chs=20x20&chco=FF00FF,FF00FF,000000&ext=.png","icon_size":"20x20","icon_width":"20","icon_height":"20","icon_anchor_width":10,"icon_anchor_height":"20","zindex":1},"6":{"name":"Melask\u00f3li - Tengipunktur","url":"\/locations\/6","devices":"1","image":"\/datastore\/image\/\/thumb1","address":null,"lat":"64.142609","lng":"-21.957293","icon":"http:\/\/chart.apis.google.com\/chart?cht=mm&chs=20x20&chco=FF00FF,FF00FF,000000&ext=.png","icon_size":"20x20","icon_width":"20","icon_height":"20","icon_anchor_width":10,"icon_anchor_height":"20","zindex":1},"7":{"name":"R\u00e1\u00f0h\u00fasi\u00f0 - Hn\u00fatpunktur","url":"\/locations\/7","devices":"11","image":"\/datastore\/image\/\/thumb1","address":null,"lat":"64.146042","lng":"-21.942068","icon":"http:\/\/chart.apis.google.com\/chart?cht=mm&chs=20x20&chco=FF00FF,FF00FF,000000&ext=.png","icon_size":"20x20","icon_width":"20","icon_height":"20","icon_anchor_width":10,"icon_anchor_height":"20","zindex":1},"8":{"name":"R\u00e1\u00f0h\u00fasi\u00f0 - T\u00e6knir\u00fdmi","url":"\/locations\/8","devices":"14","image":"\/datastore\/image\/\/thumb1","address":null,"lat":"64.146042","lng":"-21.942059","icon":"http:\/\/chart.apis.google.com\/chart?cht=mm&chs=20x20&chco=FF00FF,FF00FF,000000&ext=.png","icon_size":"20x20","icon_width":"20","icon_height":"20","icon_anchor_width":10,"icon_anchor_height":"20","zindex":1},"9":{"name":"LSR Hulduheimar","url":"\/locations\/9","devices":"0","image":"\/datastore\/image\/\/thumb1","address":null,"lat":"64.152809","lng":"-21.789762","icon":"http:\/\/chart.apis.google.com\/chart?cht=mm&chs=20x20&chco=00a6ff,00a6ff,000000&ext=.png","icon_size":"20x20","icon_width":"20","icon_height":"20","icon_anchor_width":10,"icon_anchor_height":"20","zindex":1},"10":{"name":"Hitt H\u00fasi\u00f0 - F\u00e9lagsmi\u00f0st\u00f6\u00f0","url":"\/locations\/10","devices":"4","image":"\/datastore\/image\/\/thumb1","address":null,"lat":"64.147720","lng":"-21.938259","icon":"http:\/\/chart.apis.google.com\/chart?cht=mm&chs=20x20&chco=FF00FF,FF00FF,000000&ext=.png","icon_size":"20x20","icon_width":"20","icon_height":"20","icon_anchor_width":10,"icon_anchor_height":"20","zindex":1},"11":{"name":"VEL - SEM og Oddsh\u00fas Sl\u00e9ttuvegi ","url":"\/locations\/11","devices":"1","image":"\/datastore\/image\/7bd6a24edfc51b58e22971b6d8babf33\/thumb1","address":null,"lat":"64.124413","lng":"-21.897993","icon":"http:\/\/chart.apis.google.com\/chart?cht=mm&chs=20x20&chco=FF00FF,FF00FF,000000&ext=.png","icon_size":"20x20","icon_width":"20","icon_height":"20","icon_anchor_width":10,"icon_anchor_height":"20","zindex":1},"13":{"name":"LSR Engjaborg","url":"\/locations\/13","devices":"1","image":"\/datastore\/image\/\/thumb1","address":null,"lat":"64.148140","lng":"-21.776716","icon":"http:\/\/chart.apis.google.com\/chart?cht=mm&chs=20x20&chco=00a6ff,00a6ff,000000&ext=.png","icon_size":"20x20","icon_width":"20","icon_height":"20","icon_anchor_width":10,"icon_anchor_height":"20","zindex":1},"14":{"name":"Laugarnessk\u00f3li - Hn\u00fatpunktur","url":"\/locations\/14","devices":"2","image":"\/datastore\/image\/\/thumb1","address":null,"lat":"64.144554","lng":"-21.884745","icon":"http:\/\/chart.apis.google.com\/chart?cht=mm&chs=20x20&chco=00a6ff,00a6ff,000000&ext=.png","icon_size":"20x20","icon_width":"20","icon_height":"20","icon_anchor_width":10,"icon_anchor_height":"20","zindex":1},"15":{"name":"St\u00f3rh\u00f6f\u00f0i - Hn\u00fatpunktur","url":"\/locations\/15","devices":"2","image":"\/datastore\/image\/f4181e0cde171a7f214d9a8c636c4d56\/thumb1","address":null,"lat":"64.129295","lng":"-21.818632","icon":"http:\/\/chart.apis.google.com\/chart?cht=mm&chs=20x20&chco=00a6ff,00a6ff,000000&ext=.png","icon_size":"20x20","icon_width":"20","icon_height":"20","icon_anchor_width":10,"icon_anchor_height":"20","zindex":1},"16":{"name":"Engjask\u00f3li - Hn\u00fatpunktur","url":"\/locations\/16","devices":"1","image":"\/datastore\/image\/\/thumb1","address":null,"lat":"64.149269","lng":"-21.776403","icon":"http:\/\/chart.apis.google.com\/chart?cht=mm&chs=20x20&chco=00a6ff,00a6ff,000000&ext=.png","icon_size":"20x20","icon_width":"20","icon_height":"20","icon_anchor_width":10,"icon_anchor_height":"20","zindex":1},"17":{"name":"Seljask\u00f3li - Hn\u00fatpunktur","url":"\/locations\/17","devices":"1","image":"\/datastore\/image\/\/thumb1","address":null,"lat":"64.095024","lng":"-21.837730","icon":"http:\/\/chart.apis.google.com\/chart?cht=mm&chs=20x20&chco=00a6ff,00a6ff,000000&ext=.png","icon_size":"20x20","icon_width":"20","icon_height":"20","icon_anchor_width":10,"icon_anchor_height":"20","zindex":1},"18":{"name":"Hvassaleitissk\u00f3li - Hn\u00fatpunktur","url":"\/locations\/18","devices":"1","image":"\/datastore\/image\/\/thumb1","address":null,"lat":"64.127853","lng":"-21.882620","icon":"http:\/\/chart.apis.google.com\/chart?cht=mm&chs=20x20&chco=00a6ff,00a6ff,000000&ext=.png","icon_size":"20x20","icon_width":"20","icon_height":"20","icon_anchor_width":10,"icon_anchor_height":"20","zindex":1},"19":{"name":"Fr\u00e6\u00f0slumi\u00f0st\u00f6\u00f0 - Hn\u00fatpunktur","url":"\/locations\/19","devices":"0","image":"\/datastore\/image\/\/thumb1","address":null,"lat":"64.144989","lng":"-21.939096","icon":"http:\/\/chart.apis.google.com\/chart?cht=mm&chs=20x20&chco=00a6ff,00a6ff,000000&ext=.png","icon_size":"20x20","icon_width":"20","icon_height":"20","icon_anchor_width":10,"icon_anchor_height":"20","zindex":1},"20":{"name":"Austurb\u00e6jarsk\u00f3li","url":"\/locations\/20","devices":"12","image":"\/datastore\/image\/\/thumb1","address":null,"lat":"64.142204","lng":"-21.923742","icon":"http:\/\/chart.apis.google.com\/chart?cht=mm&chs=20x20&chco=00a6ff,00a6ff,000000&ext=.png","icon_size":"20x20","icon_width":"20","icon_height":"20","icon_anchor_width":10,"icon_anchor_height":"20","zindex":1},"21":{"name":"\u00c1lftam\u00fdrarsk\u00f3li","url":"\/locations\/21","devices":"11","image":"\/datastore\/image\/\/thumb1","address":null,"lat":"64.134613","lng":"-21.892685","icon":"http:\/\/chart.apis.google.com\/chart?cht=mm&chs=20x20&chco=FF00FF,FF00FF,000000&ext=.png","icon_size":"20x20","icon_width":"20","icon_height":"20","icon_anchor_width":10,"icon_anchor_height":"20","zindex":1},"22":{"name":"\u00c1rb\u00e6jarsk\u00f3li","url":"\/locations\/22","devices":"11","image":"\/datastore\/image\/\/thumb1","address":null,"lat":"64.115570","lng":"-21.797401","icon":"http:\/\/chart.apis.google.com\/chart?cht=mm&chs=20x20&chco=FF00FF,FF00FF,000000&ext=.png","icon_size":"20x20","icon_width":"20","icon_height":"20","icon_anchor_width":10,"icon_anchor_height":"20","zindex":1},"23":{"name":"\u00c1rt\u00fanssk\u00f3li","url":"\/locations\/23","devices":"4","image":"\/datastore\/image\/\/thumb1","address":null,"lat":"64.120064","lng":"-21.821659","icon":"http:\/\/chart.apis.google.com\/chart?cht=mm&chs=20x20&chco=FF00FF,FF00FF,000000&ext=.png","icon_size":"20x20","icon_width":"20","icon_height":"20","icon_anchor_width":10,"icon_anchor_height":"20","zindex":1},"24":{"name":"\u00cdTR - Vesturhl\u00ed\u00f0","url":"\/locations\/24","devices":"1","image":"\/datastore\/image\/\/thumb1","address":null,"lat":"64.126183","lng":"-21.911610","icon":"http:\/\/chart.apis.google.com\/chart?cht=mm&chs=20x20&chco=FF00FF,FF00FF,000000&ext=.png","icon_size":"20x20","icon_width":"20","icon_height":"20","icon_anchor_width":10,"icon_anchor_height":"20","zindex":1},"25":{"name":"Brei\u00f0ager\u00f0issk\u00f3li","url":"\/locations\/25","devices":"3","image":"\/datastore\/image\/\/thumb1","address":null,"lat":"64.125458","lng":"-21.871408","icon":"http:\/\/chart.apis.google.com\/chart?cht=mm&chs=20x20&chco=FF00FF,FF00FF,000000&ext=.png","icon_size":"20x20","icon_width":"20","icon_height":"20","icon_anchor_width":10,"icon_anchor_height":"20","zindex":1},"26":{"name":"Brei\u00f0holtssk\u00f3li","url":"\/locations\/26","devices":"9","image":"\/datastore\/image\/\/thumb1","address":null,"lat":"64.107468","lng":"-21.834404","icon":"http:\/\/chart.apis.google.com\/chart?cht=mm&chs=20x20&chco=FF00FF,FF00FF,000000&ext=.png","icon_size":"20x20","icon_width":"20","icon_height":"20","icon_anchor_width":10,"icon_anchor_height":"20","zindex":1},"27":{"name":"Br\u00faarsk\u00f3li","url":"\/locations\/27","devices":"3","image":"\/datastore\/image\/afd9ccdddb001c1b2427c9d1c3ce6790\/thumb1","address":null,"lat":"64.125740","lng":"-21.912907","icon":"http:\/\/chart.apis.google.com\/chart?cht=mm&chs=20x20&chco=FF00FF,FF00FF,000000&ext=.png","icon_size":"20x20","icon_width":"20","icon_height":"20","icon_anchor_width":10,"icon_anchor_height":"20","zindex":1},"28":{"name":"Dalbrautarsk\u00f3li","url":"\/locations\/28","devices":"0","image":"\/datastore\/image\/\/thumb1","address":null,"lat":"64.148529","lng":"-21.877180","icon":"http:\/\/chart.apis.google.com\/chart?cht=mm&chs=20x20&chco=FF00FF,FF00FF,000000&ext=.png","icon_size":"20x20","icon_width":"20","icon_height":"20","icon_anchor_width":10,"icon_anchor_height":"20","zindex":1},"29":{"name":"Fellask\u00f3li","url":"\/locations\/29","devices":"7","image":"\/datastore\/image\/\/thumb1","address":null,"lat":"64.102608","lng":"-21.821938","icon":"http:\/\/chart.apis.google.com\/chart?cht=mm&chs=20x20&chco=FF00FF,FF00FF,000000&ext=.png","icon_size":"20x20","icon_width":"20","icon_height":"20","icon_anchor_width":10,"icon_anchor_height":"20","zindex":1},"30":{"name":"Foldask\u00f3li","url":"\/locations\/30","devices":"8","image":"\/datastore\/image\/\/thumb1","address":null,"lat":"64.134171","lng":"-21.793989","icon":"http:\/\/chart.apis.google.com\/chart?cht=mm&chs=20x20&chco=FF00FF,FF00FF,000000&ext=.png","icon_size":"20x20","icon_width":"20","icon_height":"20","icon_anchor_width":10,"icon_anchor_height":"20","zindex":1},"31":{"name":"Fossvogssk\u00f3li","url":"\/locations\/31","devices":"5","image":"\/datastore\/image\/\/thumb1","address":null,"lat":"64.117424","lng":"-21.866463","icon":"http:\/\/chart.apis.google.com\/chart?cht=mm&chs=20x20&chco=FF00FF,FF00FF,000000&ext=.png","icon_size":"20x20","icon_width":"20","icon_height":"20","icon_anchor_width":10,"icon_anchor_height":"20","zindex":1},"32":{"name":"Grandask\u00f3li","url":"\/locations\/32","devices":"11","image":"\/datastore\/image\/\/thumb1","address":null,"lat":"64.148277","lng":"-21.972828","icon":"http:\/\/chart.apis.google.com\/chart?cht=mm&chs=20x20&chco=FF00FF,FF00FF,000000&ext=.png","icon_size":"20x20","icon_width":"20","icon_height":"20","icon_anchor_width":10,"icon_anchor_height":"20","zindex":1},"33":{"name":"Hagask\u00f3li","url":"\/locations\/33","devices":"8","image":"\/datastore\/image\/\/thumb1","address":null,"lat":"64.140732","lng":"-21.956736","icon":"http:\/\/chart.apis.google.com\/chart?cht=mm&chs=20x20&chco=FF00FF,FF00FF,000000&ext=.png","icon_size":"20x20","icon_width":"20","icon_height":"20","icon_anchor_width":10,"icon_anchor_height":"20","zindex":1},"34":{"name":"Hamrask\u00f3li","url":"\/locations\/34","devices":"6","image":"\/datastore\/image\/\/thumb1","address":null,"lat":"64.137856","lng":"-21.813097","icon":"http:\/\/chart.apis.google.com\/chart?cht=mm&chs=20x20&chco=FF00FF,FF00FF,000000&ext=.png","icon_size":"20x20","icon_width":"20","icon_height":"20","icon_anchor_width":10,"icon_anchor_height":"20","zindex":1},"35":{"name":"H\u00e1teigssk\u00f3li","url":"\/locations\/35","devices":"12","image":"\/datastore\/image\/\/thumb1","address":null,"lat":"64.136909","lng":"-21.898605","icon":"http:\/\/chart.apis.google.com\/chart?cht=mm&chs=20x20&chco=FF00FF,FF00FF,000000&ext=.png","icon_size":"20x20","icon_width":"20","icon_height":"20","icon_anchor_width":10,"icon_anchor_height":"20","zindex":1},"36":{"name":"Hl\u00ed\u00f0ask\u00f3li","url":"\/locations\/36","devices":"5","image":"\/datastore\/image\/\/thumb1","address":null,"lat":"64.130951","lng":"-21.910988","icon":"http:\/\/chart.apis.google.com\/chart?cht=mm&chs=20x20&chco=FF00FF,FF00FF,000000&ext=.png","icon_size":"20x20","icon_width":"20","icon_height":"20","icon_anchor_width":10,"icon_anchor_height":"20","zindex":1},"37":{"name":"H\u00f3labrekkusk\u00f3li","url":"\/locations\/37","devices":"7","image":"\/datastore\/image\/\/thumb1","address":null,"lat":"64.107536","lng":"-21.817646","icon":"http:\/\/chart.apis.google.com\/chart?cht=mm&chs=20x20&chco=FF00FF,FF00FF,000000&ext=.png","icon_size":"20x20","icon_width":"20","icon_height":"20","icon_anchor_width":10,"icon_anchor_height":"20","zindex":1},"38":{"name":"H\u00fasask\u00f3li","url":"\/locations\/38","devices":"9","image":"\/datastore\/image\/\/thumb1","address":null,"lat":"64.138084","lng":"-21.784161","icon":"http:\/\/chart.apis.google.com\/chart?cht=mm&chs=20x20&chco=FF00FF,FF00FF,000000&ext=.png","icon_size":"20x20","icon_width":"20","icon_height":"20","icon_anchor_width":10,"icon_anchor_height":"20","zindex":1},"39":{"name":"Korpusk\u00f3li","url":"\/locations\/39","devices":"9","image":"\/datastore\/image\/\/thumb1","address":null,"lat":"64.156670","lng":"-21.754925","icon":"http:\/\/chart.apis.google.com\/chart?cht=mm&chs=20x20&chco=FF00FF,FF00FF,000000&ext=.png","icon_size":"20x20","icon_width":"20","icon_height":"20","icon_anchor_width":10,"icon_anchor_height":"20","zindex":1},"40":{"name":"Ulj\u00f3s: B\u00fasta\u00f0avegur-Flugvallarve","url":"\/locations\/40","devices":"1","image":"\/datastore\/image\/\/thumb1","address":null,"lat":"64.132614","lng":"-21.920471","icon":"http:\/\/chart.apis.google.com\/chart?cht=mm&chs=20x20&chco=15ff00,15ff00,000000&ext=.png","icon_size":"20x20","icon_width":"20","icon_height":"20","icon_anchor_width":10,"icon_anchor_height":"20","zindex":1},"41":{"name":"Langholtssk\u00f3li","url":"\/locations\/41","devices":"9","image":"\/datastore\/image\/\/thumb1","address":null,"lat":"64.138168","lng":"-21.860872","icon":"http:\/\/chart.apis.google.com\/chart?cht=mm&chs=20x20&chco=FF00FF,FF00FF,000000&ext=.png","icon_size":"20x20","icon_width":"20","icon_height":"20","icon_anchor_width":10,"icon_anchor_height":"20","zindex":1},"42":{"name":"Laugal\u00e6kjarsk\u00f3li","url":"\/locations\/42","devices":"9","image":"\/datastore\/image\/\/thumb1","address":null,"lat":"64.147453","lng":"-21.878618","icon":"http:\/\/chart.apis.google.com\/chart?cht=mm&chs=20x20&chco=FF00FF,FF00FF,000000&ext=.png","icon_size":"20x20","icon_width":"20","icon_height":"20","icon_anchor_width":10,"icon_anchor_height":"20","zindex":1},"43":{"name":"VEL - Fl\u00f3kagata 29-31","url":"\/locations\/43","devices":"1","image":"\/datastore\/image\/f0894291455be68d349a1b1af75eb5dc\/thumb1","address":null,"lat":"64.138931","lng":"-21.913223","icon":"http:\/\/chart.apis.google.com\/chart?cht=mm&chs=20x20&chco=FF00FF,FF00FF,000000&ext=.png","icon_size":"20x20","icon_width":"20","icon_height":"20","icon_anchor_width":10,"icon_anchor_height":"20","zindex":1},"44":{"name":"Nor\u00f0lingask\u00f3li","url":"\/locations\/44","devices":"14","image":"\/datastore\/image\/\/thumb1","address":null,"lat":"64.101532","lng":"-21.773058","icon":"http:\/\/chart.apis.google.com\/chart?cht=mm&chs=20x20&chco=FF00FF,FF00FF,000000&ext=.png","icon_size":"20x20","icon_width":"20","icon_height":"20","icon_anchor_width":10,"icon_anchor_height":"20","zindex":1},"45":{"name":"R\u00e9ttarholtssk\u00f3li","url":"\/locations\/45","devices":"7","image":"\/datastore\/image\/\/thumb1","address":null,"lat":"64.123619","lng":"-21.866034","icon":"http:\/\/chart.apis.google.com\/chart?cht=mm&chs=20x20&chco=FF00FF,FF00FF,000000&ext=.png","icon_size":"20x20","icon_width":"20","icon_height":"20","icon_anchor_width":10,"icon_anchor_height":"20","zindex":1},"46":{"name":"Rimask\u00f3li","url":"\/locations\/46","devices":"7","image":"\/datastore\/image\/\/thumb1","address":null,"lat":"64.145782","lng":"-21.794600","icon":"http:\/\/chart.apis.google.com\/chart?cht=mm&chs=20x20&chco=FF00FF,FF00FF,000000&ext=.png","icon_size":"20x20","icon_width":"20","icon_height":"20","icon_anchor_width":10,"icon_anchor_height":"20","zindex":1},"48":{"name":"Sel\u00e1ssk\u00f3li","url":"\/locations\/48","devices":"4","image":"\/datastore\/image\/\/thumb1","address":null,"lat":"64.105736","lng":"-21.784649","icon":"http:\/\/chart.apis.google.com\/chart?cht=mm&chs=20x20&chco=FF00FF,FF00FF,000000&ext=.png","icon_size":"20x20","icon_width":"20","icon_height":"20","icon_anchor_width":10,"icon_anchor_height":"20","zindex":1},"49":{"name":"S\u00e6mundarsk\u00f3li","url":"\/locations\/49","devices":"14","image":"\/datastore\/image\/929bd594527ec75e2054329c55957395\/thumb1","address":null,"lat":"64.125343","lng":"-21.738531","icon":"http:\/\/chart.apis.google.com\/chart?cht=mm&chs=20x20&chco=FF00FF,FF00FF,000000&ext=.png","icon_size":"20x20","icon_width":"20","icon_height":"20","icon_anchor_width":10,"icon_anchor_height":"20","zindex":1},"50":{"name":"Vesturb\u00e6jarsk\u00f3li","url":"\/locations\/50","devices":"5","image":"\/datastore\/image\/9c032141210a0e011842f52b50e4a805\/thumb1","address":null,"lat":"64.149689","lng":"-21.957926","icon":"http:\/\/chart.apis.google.com\/chart?cht=mm&chs=20x20&chco=FF00FF,FF00FF,000000&ext=.png","icon_size":"20x20","icon_width":"20","icon_height":"20","icon_anchor_width":10,"icon_anchor_height":"20","zindex":1},"51":{"name":"V\u00edkursk\u00f3li","url":"\/locations\/51","devices":"20","image":"\/datastore\/image\/\/thumb1","address":null,"lat":"64.153458","lng":"-21.777800","icon":"http:\/\/chart.apis.google.com\/chart?cht=mm&chs=20x20&chco=FF00FF,FF00FF,000000&ext=.png","icon_size":"20x20","icon_width":"20","icon_height":"20","icon_anchor_width":10,"icon_anchor_height":"20","zindex":1},"52":{"name":"Vogask\u00f3li","url":"\/locations\/52","devices":"9","image":"\/datastore\/image\/\/thumb1","address":null,"lat":"64.131752","lng":"-21.858425","icon":"http:\/\/chart.apis.google.com\/chart?cht=mm&chs=20x20&chco=FF00FF,FF00FF,000000&ext=.png","icon_size":"20x20","icon_width":"20","icon_height":"20","icon_anchor_width":10,"icon_anchor_height":"20","zindex":1},"53":{"name":"\u00d6lduselssk\u00f3li","url":"\/locations\/53","devices":"13","image":"\/datastore\/image\/\/thumb1","address":null,"lat":"64.100227","lng":"-21.849360","icon":"http:\/\/chart.apis.google.com\/chart?cht=mm&chs=20x20&chco=FF00FF,FF00FF,000000&ext=.png","icon_size":"20x20","icon_width":"20","icon_height":"20","icon_anchor_width":10,"icon_anchor_height":"20","zindex":1},"54":{"name":"\u00d6skjuhl\u00ed\u00f0arsk\u00f3li","url":"\/locations\/54","devices":"4","image":"\/datastore\/image\/\/thumb1","address":null,"lat":"64.125511","lng":"-21.905472","icon":"http:\/\/chart.apis.google.com\/chart?cht=mm&chs=20x20&chco=FF00FF,FF00FF,000000&ext=.png","icon_size":"20x20","icon_width":"20","icon_height":"20","icon_anchor_width":10,"icon_anchor_height":"20","zindex":1},"55":{"name":"Ingunnarsk\u00f3li","url":"\/locations\/55","devices":"19","image":"\/datastore\/image\/\/thumb1","address":null,"lat":"64.126030","lng":"-21.758284","icon":"http:\/\/chart.apis.google.com\/chart?cht=mm&chs=20x20&chco=FF00FF,FF00FF,000000&ext=.png","icon_size":"20x20","icon_width":"20","icon_height":"20","icon_anchor_width":10,"icon_anchor_height":"20","zindex":1},"56":{"name":"Melask\u00f3li","url":"\/locations\/56","devices":"7","image":"\/datastore\/image\/\/thumb1","address":null,"lat":"64.142578","lng":"-21.957405","icon":"http:\/\/chart.apis.google.com\/chart?cht=mm&chs=20x20&chco=FF00FF,FF00FF,000000&ext=.png","icon_size":"20x20","icon_width":"20","icon_height":"20","icon_anchor_width":10,"icon_anchor_height":"20","zindex":1},"57":{"name":"Hafnarh\u00fas - Tengipunktur","url":"\/locations\/57","devices":"1","image":"\/datastore\/image\/\/thumb1","address":null,"lat":"64.149071","lng":"-21.940491","icon":"http:\/\/chart.apis.google.com\/chart?cht=mm&chs=20x20&chco=FF00FF,FF00FF,000000&ext=.png","icon_size":"20x20","icon_width":"20","icon_height":"20","icon_anchor_width":10,"icon_anchor_height":"20","zindex":1},"58":{"name":"Ing\u00f3lfsnaust - Tengipunktur","url":"\/locations\/58","devices":"1","image":"\/datastore\/image\/\/thumb1","address":null,"lat":"64.148552","lng":"-21.942047","icon":"http:\/\/chart.apis.google.com\/chart?cht=mm&chs=20x20&chco=FF00FF,FF00FF,000000&ext=.png","icon_size":"20x20","icon_width":"20","icon_height":"20","icon_anchor_width":10,"icon_anchor_height":"20","zindex":1},"59":{"name":"Ingunnarsk\u00f3li - Tengipunktur","url":"\/locations\/59","devices":"1","image":"\/datastore\/image\/\/thumb1","address":null,"lat":"64.126030","lng":"-21.758272","icon":"http:\/\/chart.apis.google.com\/chart?cht=mm&chs=20x20&chco=FF00FF,FF00FF,000000&ext=.png","icon_size":"20x20","icon_width":"20","icon_height":"20","icon_anchor_width":10,"icon_anchor_height":"20","zindex":1},"60":{"name":"N\u00e1msflokkar Reykjav\u00edkur","url":"\/locations\/60","devices":"3","image":"\/datastore\/image\/\/thumb1","address":null,"lat":"64.135399","lng":"-21.874123","icon":"http:\/\/chart.apis.google.com\/chart?cht=mm&chs=20x20&chco=FF00FF,FF00FF,000000&ext=.png","icon_size":"20x20","icon_width":"20","icon_height":"20","icon_anchor_width":10,"icon_anchor_height":"20","zindex":1},"62":{"name":"F\u00e9l\u00f3 - Hraunberg 15 (aftara h\u00fas)","url":"\/locations\/62","devices":"1","image":"\/datastore\/image\/\/thumb1","address":null,"lat":"64.105743","lng":"-21.811937","icon":"http:\/\/chart.apis.google.com\/chart?cht=mm&chs=20x20&chco=FF00FF,FF00FF,000000&ext=.png","icon_size":"20x20","icon_width":"20","icon_height":"20","icon_anchor_width":10,"icon_anchor_height":"20","zindex":1},"63":{"name":"T\u00e6knigar\u00f0ur - Tengipunktur","url":"\/locations\/63","devices":"1","image":"\/datastore\/image\/\/thumb1","address":null,"lat":"64.139465","lng":"-21.955061","icon":"http:\/\/chart.apis.google.com\/chart?cht=mm&chs=20x20&chco=FF00FF,FF00FF,000000&ext=.png","icon_size":"20x20","icon_width":"20","icon_height":"20","icon_anchor_width":10,"icon_anchor_height":"20","zindex":1},"64":{"name":"VEL - Hverfisgata 125","url":"\/locations\/64","devices":"1","image":"\/datastore\/image\/\/thumb1","address":null,"lat":"64.143181","lng":"-21.912155","icon":"http:\/\/chart.apis.google.com\/chart?cht=mm&chs=20x20&chco=FF00FF,FF00FF,000000&ext=.png","icon_size":"20x20","icon_width":"20","icon_height":"20","icon_anchor_width":10,"icon_anchor_height":"20","zindex":1},"65":{"name":"\u00dej\u00f3nustumi\u00f0st\u00f6\u00f0 - \u00c1lfabakka","url":"\/locations\/65","devices":"3","image":"\/datastore\/image\/\/thumb1","address":null,"lat":"64.108475","lng":"-21.843632","icon":"http:\/\/chart.apis.google.com\/chart?cht=mm&chs=20x20&chco=FF00FF,FF00FF,000000&ext=.png","icon_size":"20x20","icon_width":"20","icon_height":"20","icon_anchor_width":10,"icon_anchor_height":"20","zindex":1},"66":{"name":"\u00dej\u00f3nustumi\u00f0st\u00f6\u00f0 Grafarvogs, Gylf","url":"\/locations\/66","devices":"2","image":"\/datastore\/image\/\/thumb1","address":null,"lat":"64.143593","lng":"-21.805073","icon":"http:\/\/chart.apis.google.com\/chart?cht=mm&chs=20x20&chco=FF00FF,FF00FF,000000&ext=.png","icon_size":"20x20","icon_width":"20","icon_height":"20","icon_anchor_width":10,"icon_anchor_height":"20","zindex":1},"67":{"name":"\u00dej\u00f3nustumi\u00f0st\u00f6\u00f0 - S\u00ed\u00f0um\u00fala","url":"\/locations\/67","devices":"6","image":"\/datastore\/image\/68d887f1aae9a57e16413b78acd9f428\/thumb1","address":null,"lat":"64.131279","lng":"-21.876558","icon":"http:\/\/chart.apis.google.com\/chart?cht=mm&chs=20x20&chco=FF00FF,FF00FF,000000&ext=.png","icon_size":"20x20","icon_width":"20","icon_height":"20","icon_anchor_width":10,"icon_anchor_height":"20","zindex":1},"68":{"name":"\u00dej\u00f3nustumi\u00f0st\u00f6\u00f0 - Vesturgar\u00f0ur","url":"\/locations\/68","devices":"1","image":"\/datastore\/image\/\/thumb1","address":null,"lat":"64.141716","lng":"-21.962004","icon":"http:\/\/chart.apis.google.com\/chart?cht=mm&chs=20x20&chco=FF00FF,FF00FF,000000&ext=.png","icon_size":"20x20","icon_width":"20","icon_height":"20","icon_anchor_width":10,"icon_anchor_height":"20","zindex":1},"70":{"name":"\u00cdTR - B\u00fasta\u00f0ir","url":"\/locations\/70","devices":"1","image":"\/datastore\/image\/\/thumb1","address":null,"lat":"64.121071","lng":"-21.859152","icon":"http:\/\/chart.apis.google.com\/chart?cht=mm&chs=20x20&chco=FF00FF,FF00FF,000000&ext=.png","icon_size":"20x20","icon_width":"20","icon_height":"20","icon_anchor_width":10,"icon_anchor_height":"20","zindex":1},"71":{"name":"\u00cdTR - Sundh\u00f6ll","url":"\/locations\/71","devices":"2","image":"\/datastore\/image\/\/thumb1","address":null,"lat":"64.141785","lng":"-21.920309","icon":"http:\/\/chart.apis.google.com\/chart?cht=mm&chs=20x20&chco=FF00FF,FF00FF,000000&ext=.png","icon_size":"20x20","icon_width":"20","icon_height":"20","icon_anchor_width":10,"icon_anchor_height":"20","zindex":1},"72":{"name":"\u00cdTR - Laugardalslaug","url":"\/locations\/72","devices":"3","image":"\/datastore\/image\/\/thumb1","address":null,"lat":"64.145927","lng":"-21.879293","icon":"http:\/\/chart.apis.google.com\/chart?cht=mm&chs=20x20&chco=FF00FF,FF00FF,000000&ext=.png","icon_size":"20x20","icon_width":"20","icon_height":"20","icon_anchor_width":10,"icon_anchor_height":"20","zindex":1},"73":{"name":"\u00cdTR - \u00der\u00f3ttheimar","url":"\/locations\/73","devices":"1","image":"\/datastore\/image\/\/thumb1","address":null,"lat":"64.140137","lng":"-21.852880","icon":"http:\/\/chart.apis.google.com\/chart?cht=mm&chs=20x20&chco=FF00FF,FF00FF,000000&ext=.png","icon_size":"20x20","icon_width":"20","icon_height":"20","icon_anchor_width":10,"icon_anchor_height":"20","zindex":1},"74":{"name":"BBS - \u00c1rsafn","url":"\/locations\/74","devices":"2","image":"\/datastore\/image\/\/thumb1","address":null,"lat":"64.118179","lng":"-21.796576","icon":"http:\/\/chart.apis.google.com\/chart?cht=mm&chs=20x20&chco=FF00FF,FF00FF,000000&ext=.png","icon_size":"20x20","icon_width":"20","icon_height":"20","icon_anchor_width":10,"icon_anchor_height":"20","zindex":1},"75":{"name":"Seljask\u00f3li","url":"\/locations\/75","devices":"21","image":"\/datastore\/image\/\/thumb1","address":null,"lat":"64.095253","lng":"-21.837946","icon":"http:\/\/chart.apis.google.com\/chart?cht=mm&chs=20x20&chco=FF00FF,FF00FF,000000&ext=.png","icon_size":"20x20","icon_width":"20","icon_height":"20","icon_anchor_width":10,"icon_anchor_height":"20","zindex":1},"76":{"name":"BBS - Kringlusafn","url":"\/locations\/76","devices":"2","image":"\/datastore\/image\/\/thumb1","address":null,"lat":"64.129120","lng":"-21.895763","icon":"http:\/\/chart.apis.google.com\/chart?cht=mm&chs=20x20&chco=FF00FF,FF00FF,000000&ext=.png","icon_size":"20x20","icon_width":"20","icon_height":"20","icon_anchor_width":10,"icon_anchor_height":"20","zindex":1},"77":{"name":"BBS - Ger\u00f0ubergi","url":"\/locations\/77","devices":"2","image":"\/datastore\/image\/\/thumb1","address":null,"lat":"64.104561","lng":"-21.814470","icon":"http:\/\/chart.apis.google.com\/chart?cht=mm&chs=20x20&chco=FF00FF,FF00FF,000000&ext=.png","icon_size":"20x20","icon_width":"20","icon_height":"20","icon_anchor_width":10,"icon_anchor_height":"20","zindex":1},"78":{"name":"BBS - Foldasafn","url":"\/locations\/78","devices":"2","image":"\/datastore\/image\/f9c4bdbd81c3abc896fbff4fbeeb516d\/thumb1","address":null,"lat":"64.132263","lng":"-21.800169","icon":"http:\/\/chart.apis.google.com\/chart?cht=mm&chs=20x20&chco=FF00FF,FF00FF,000000&ext=.png","icon_size":"20x20","icon_width":"20","icon_height":"20","icon_anchor_width":10,"icon_anchor_height":"20","zindex":1},"79":{"name":"BBS - S\u00f3lheimasafn","url":"\/locations\/79","devices":"2","image":"\/datastore\/image\/\/thumb1","address":null,"lat":"64.134056","lng":"-21.859007","icon":"http:\/\/chart.apis.google.com\/chart?cht=mm&chs=20x20&chco=FF00FF,FF00FF,000000&ext=.png","icon_size":"20x20","icon_width":"20","icon_height":"20","icon_anchor_width":10,"icon_anchor_height":"20","zindex":1},"80":{"name":"Menningarsvi\u00f0 Gr\u00f3farh\u00fasi (BBS\/A\u00f0","url":"\/locations\/80","devices":"3","image":"\/datastore\/image\/\/thumb1","address":null,"lat":"64.149429","lng":"-21.941484","icon":"http:\/\/chart.apis.google.com\/chart?cht=mm&chs=20x20&chco=FF00FF,FF00FF,000000&ext=.png","icon_size":"20x20","icon_width":"20","icon_height":"20","icon_anchor_width":10,"icon_anchor_height":"20","zindex":1},"81":{"name":"LSR J\u00f6klaborg","url":"\/locations\/81","devices":"1","image":"\/datastore\/image\/\/thumb1","address":null,"lat":"64.095787","lng":"-21.831400","icon":"http:\/\/chart.apis.google.com\/chart?cht=mm&chs=20x20&chco=00a6ff,00a6ff,000000&ext=.png","icon_size":"20x20","icon_width":"20","icon_height":"20","icon_anchor_width":10,"icon_anchor_height":"20","zindex":1},"82":{"name":"\u00dej\u00f3nustumi\u00f0st\u00f6\u00f0 - \u00c1rb\u00e6","url":"\/locations\/82","devices":"1","image":"\/datastore\/image\/\/thumb1","address":null,"lat":"64.118736","lng":"-21.800051","icon":"http:\/\/chart.apis.google.com\/chart?cht=mm&chs=20x20&chco=FF00FF,FF00FF,000000&ext=.png","icon_size":"20x20","icon_width":"20","icon_height":"20","icon_anchor_width":10,"icon_anchor_height":"20","zindex":1},"83":{"name":"\u00cdTR - H\u00f3lmasel","url":"\/locations\/83","devices":"0","image":"\/datastore\/image\/\/thumb1","address":null,"lat":"64.097862","lng":"-21.843866","icon":"http:\/\/chart.apis.google.com\/chart?cht=mm&chs=20x20&chco=FF00FF,FF00FF,000000&ext=.png","icon_size":"20x20","icon_width":"20","icon_height":"20","icon_anchor_width":10,"icon_anchor_height":"20","zindex":1},"84":{"name":"\u00c1rb\u00e6jarsafn","url":"\/locations\/84","devices":"6","image":"\/datastore\/image\/\/thumb1","address":null,"lat":"64.119095","lng":"-21.815592","icon":"http:\/\/chart.apis.google.com\/chart?cht=mm&chs=20x20&chco=FF00FF,FF00FF,000000&ext=.png","icon_size":"20x20","icon_width":"20","icon_height":"20","icon_anchor_width":10,"icon_anchor_height":"20","zindex":1},"85":{"name":"Mi\u00f0berg - F\u00e9lagsmi\u00f0st\u00f6\u00f0","url":"\/locations\/85","devices":"2","image":"\/datastore\/image\/\/thumb1","address":null,"lat":"64.104668","lng":"-21.815920","icon":"http:\/\/chart.apis.google.com\/chart?cht=mm&chs=20x20&chco=FF00FF,FF00FF,000000&ext=.png","icon_size":"20x20","icon_width":"20","icon_height":"20","icon_anchor_width":10,"icon_anchor_height":"20","zindex":1},"86":{"name":"\u00cdTR - \u00c1rb\u00e6jarlaug","url":"\/locations\/86","devices":"1","image":"\/datastore\/image\/\/thumb1","address":null,"lat":"64.112190","lng":"-21.794434","icon":"http:\/\/chart.apis.google.com\/chart?cht=mm&chs=20x20&chco=FF00FF,FF00FF,000000&ext=.png","icon_size":"20x20","icon_width":"20","icon_height":"20","icon_anchor_width":10,"icon_anchor_height":"20","zindex":1},"88":{"name":"Menningarmi\u00f0st\u00f6\u00f0in \u00ed Ger\u00f0ubergi","url":"\/locations\/88","devices":"1","image":"\/datastore\/image\/\/thumb1","address":null,"lat":"64.104561","lng":"-21.814482","icon":"http:\/\/chart.apis.google.com\/chart?cht=mm&chs=20x20&chco=FF00FF,FF00FF,000000&ext=.png","icon_size":"20x20","icon_width":"20","icon_height":"20","icon_anchor_width":10,"icon_anchor_height":"20","zindex":1},"89":{"name":"R\u00e1\u00f0h\u00fas Reykjav\u00edkur","url":"\/locations\/89","devices":"18","image":"\/datastore\/image\/\/thumb1","address":null,"lat":"64.146057","lng":"-21.942062","icon":"http:\/\/chart.apis.google.com\/chart?cht=mm&chs=20x20&chco=FF00FF,FF00FF,000000&ext=.png","icon_size":"20x20","icon_width":"20","icon_height":"20","icon_anchor_width":10,"icon_anchor_height":"20","zindex":1},"91":{"name":"\u00cdTR - \u00cd\u00fer\u00f3ttah\u00fas Seljask\u00f3la","url":"\/locations\/91","devices":"0","image":"\/datastore\/image\/\/thumb1","address":null,"lat":"64.095940","lng":"-21.839148","icon":"http:\/\/chart.apis.google.com\/chart?cht=mm&chs=20x20&chco=FF00FF,FF00FF,000000&ext=.png","icon_size":"20x20","icon_width":"20","icon_height":"20","icon_anchor_width":10,"icon_anchor_height":"20","zindex":1},"92":{"name":"Frostaskj\u00f3l - F\u00e9lagsmi\u00f0st\u00f6\u00f0","url":"\/locations\/92","devices":"3","image":"\/datastore\/image\/\/thumb1","address":null,"lat":"64.146172","lng":"-21.968483","icon":"http:\/\/chart.apis.google.com\/chart?cht=mm&chs=20x20&chco=FF00FF,FF00FF,000000&ext=.png","icon_size":"20x20","icon_width":"20","icon_height":"20","icon_anchor_width":10,"icon_anchor_height":"20","zindex":1},"95":{"name":"Gufunesb\u00e6r","url":"\/locations\/95","devices":"3","image":"\/datastore\/image\/a2a632f2a2f0fbb85c70f7ac5dc9e4e8\/thumb1","address":null,"lat":"64.143227","lng":"-21.808945","icon":"http:\/\/chart.apis.google.com\/chart?cht=mm&chs=20x20&chco=FF00FF,FF00FF,000000&ext=.png","icon_size":"20x20","icon_width":"20","icon_height":"20","icon_anchor_width":10,"icon_anchor_height":"20","zindex":1},"96":{"name":"Ulj\u00f3s: Flugvallarvegur-Hl\u00ed\u00f0arf\u00f3t","url":"\/locations\/96","devices":"1","image":"\/datastore\/image\/\/thumb1","address":null,"lat":"64.131996","lng":"-21.928240","icon":"http:\/\/chart.apis.google.com\/chart?cht=mm&chs=20x20&chco=FF00FF,FF00FF,000000&ext=.png","icon_size":"20x20","icon_width":"20","icon_height":"20","icon_anchor_width":10,"icon_anchor_height":"20","zindex":1},"97":{"name":"\u00cdTR - \u00cd\u00fer\u00f3ttami\u00f0st\u00f6\u00f0in \u00ed Grafarv","url":"\/locations\/97","devices":"1","image":"\/datastore\/image\/affdb4fdf0bd24419acec153d0cf2017\/thumb1","address":null,"lat":"64.138054","lng":"-21.786072","icon":"http:\/\/chart.apis.google.com\/chart?cht=mm&chs=20x20&chco=FF00FF,FF00FF,000000&ext=.png","icon_size":"20x20","icon_width":"20","icon_height":"20","icon_anchor_width":10,"icon_anchor_height":"20","zindex":1},"98":{"name":"Kringlum\u00fdri (T\u00f3nab\u00e6r)","url":"\/locations\/98","devices":"2","image":"\/datastore\/image\/a88f0fc5fde12d958546b5d52e17f041\/thumb1","address":null,"lat":"64.132614","lng":"-21.889788","icon":"http:\/\/chart.apis.google.com\/chart?cht=mm&chs=20x20&chco=FF00FF,FF00FF,000000&ext=.png","icon_size":"20x20","icon_width":"20","icon_height":"20","icon_anchor_width":10,"icon_anchor_height":"20","zindex":1},"99":{"name":"\u00cdTR - \u00cd\u00fer\u00f3ttami\u00f0st\u00f6\u00f0in Austurber","url":"\/locations\/99","devices":"1","image":"\/datastore\/image\/\/thumb1","address":null,"lat":"64.104805","lng":"-21.818525","icon":"http:\/\/chart.apis.google.com\/chart?cht=mm&chs=20x20&chco=FF00FF,FF00FF,000000&ext=.png","icon_size":"20x20","icon_width":"20","icon_height":"20","icon_anchor_width":10,"icon_anchor_height":"20","zindex":1},"100":{"name":"\u00c1rsel - F\u00e9lagsmi\u00f0st\u00f6\u00f0","url":"\/locations\/100","devices":"1","image":"\/datastore\/image\/\/thumb1","address":null,"lat":"64.116180","lng":"-21.798870","icon":"http:\/\/chart.apis.google.com\/chart?cht=mm&chs=20x20&chco=FF00FF,FF00FF,000000&ext=.png","icon_size":"20x20","icon_width":"20","icon_height":"20","icon_anchor_width":10,"icon_anchor_height":"20","zindex":1},"101":{"name":"\u00cdTR - Vesturb\u00e6jarlaug","url":"\/locations\/101","devices":"1","image":"\/datastore\/image\/\/thumb1","address":null,"lat":"64.144478","lng":"-21.962830","icon":"http:\/\/chart.apis.google.com\/chart?cht=mm&chs=20x20&chco=FF00FF,FF00FF,000000&ext=.png","icon_size":"20x20","icon_width":"20","icon_height":"20","icon_anchor_width":10,"icon_anchor_height":"20","zindex":1},"103":{"name":"St\u00f3rh\u00f6f\u00f0i","url":"\/locations\/103","devices":"2","image":"\/datastore\/image\/218ab2f6add595054545e3c717d7317e\/thumb1","address":null,"lat":"64.129318","lng":"-21.818638","icon":"http:\/\/chart.apis.google.com\/chart?cht=mm&chs=20x20&chco=FF00FF,FF00FF,000000&ext=.png","icon_size":"20x20","icon_width":"20","icon_height":"20","icon_anchor_width":10,"icon_anchor_height":"20","zindex":1},"104":{"name":"Menningarsvi\u00f0 - Kjarvalssta\u00f0ir","url":"\/locations\/104","devices":"1","image":"\/datastore\/image\/\/thumb1","address":null,"lat":"64.137955","lng":"-21.913551","icon":"http:\/\/chart.apis.google.com\/chart?cht=mm&chs=20x20&chco=FF00FF,FF00FF,000000&ext=.png","icon_size":"20x20","icon_width":"20","icon_height":"20","icon_anchor_width":10,"icon_anchor_height":"20","zindex":1},"105":{"name":"H\u00f6f\u00f0i","url":"\/locations\/105","devices":"1","image":"\/datastore\/image\/\/thumb1","address":null,"lat":"64.146530","lng":"-21.906406","icon":"http:\/\/chart.apis.google.com\/chart?cht=mm&chs=20x20&chco=FF00FF,FF00FF,000000&ext=.png","icon_size":"20x20","icon_width":"20","icon_height":"20","icon_anchor_width":10,"icon_anchor_height":"20","zindex":1},"106":{"name":"VEL - Samb\u00fdli\u00f0 Sl\u00e9ttuvegi 9","url":"\/locations\/106","devices":"1","image":"\/datastore\/image\/afdda45555d731fcd60b29bbdb96ccb8\/thumb1","address":null,"lat":"64.124405","lng":"-21.897972","icon":"http:\/\/chart.apis.google.com\/chart?cht=mm&chs=20x20&chco=FF00FF,FF00FF,000000&ext=.png","icon_size":"20x20","icon_width":"20","icon_height":"20","icon_anchor_width":10,"icon_anchor_height":"20","zindex":1},"107":{"name":"VEL - Hringbraut 8","url":"\/locations\/107","devices":"1","image":"\/datastore\/image\/1812c127f0af4cbc0ab77e5b9eb1005a\/thumb1","address":null,"lat":"64.138977","lng":"-21.935390","icon":"http:\/\/chart.apis.google.com\/chart?cht=mm&chs=20x20&chco=FF00FF,FF00FF,000000&ext=.png","icon_size":"20x20","icon_width":"20","icon_height":"20","icon_anchor_width":10,"icon_anchor_height":"20","zindex":1},"112":{"name":"UTM - ADSL","url":"\/locations\/112","devices":"0","image":"\/datastore\/image\/\/thumb1","address":null,"lat":"64.146034","lng":"-21.942080","icon":"http:\/\/chart.apis.google.com\/chart?cht=mm&chs=20x20&chco=FF00FF,FF00FF,000000&ext=.png","icon_size":"20x20","icon_width":"20","icon_height":"20","icon_anchor_width":10,"icon_anchor_height":"20","zindex":1},"113":{"name":"Faxafl\u00f3ahafnir","url":"\/locations\/113","devices":"0","image":"\/datastore\/image\/\/thumb1","address":null,"lat":"64.149246","lng":"-21.940062","icon":"http:\/\/chart.apis.google.com\/chart?cht=mm&chs=20x20&chco=FF00FF,FF00FF,000000&ext=.png","icon_size":"20x20","icon_width":"20","icon_height":"20","icon_anchor_width":10,"icon_anchor_height":"20","zindex":1},"115":{"name":"Listasafn RVK - Hafnarh\u00fas","url":"\/locations\/115","devices":"1","image":"\/datastore\/image\/\/thumb1","address":null,"lat":"64.149292","lng":"-21.940636","icon":"http:\/\/chart.apis.google.com\/chart?cht=mm&chs=20x20&chco=FF00FF,FF00FF,000000&ext=.png","icon_size":"20x20","icon_width":"20","icon_height":"20","icon_anchor_width":10,"icon_anchor_height":"20","zindex":1},"117":{"name":"Borgarskjalasafn","url":"\/locations\/117","devices":"2","image":"\/datastore\/image\/\/thumb1","address":null,"lat":"64.149406","lng":"-21.941532","icon":"http:\/\/chart.apis.google.com\/chart?cht=mm&chs=20x20&chco=FF00FF,FF00FF,000000&ext=.png","icon_size":"20x20","icon_width":"20","icon_height":"20","icon_anchor_width":10,"icon_anchor_height":"20","zindex":1},"119":{"name":"VEL - Austurbr\u00fan 6","url":"\/locations\/119","devices":"0","image":"\/datastore\/image\/5495d8503f59a4f03d2a575fa507cd96\/thumb1","address":null,"lat":"64.144981","lng":"-21.865305","icon":"http:\/\/chart.apis.google.com\/chart?cht=mm&chs=20x20&chco=FF00FF,FF00FF,000000&ext=.png","icon_size":"20x20","icon_width":"20","icon_height":"20","icon_anchor_width":10,"icon_anchor_height":"20","zindex":1},"121":{"name":"Framkv\u00e6mdarsvi\u00f0 - Njar\u00f0argata","url":"\/locations\/121","devices":"1","image":"\/datastore\/image\/\/thumb1","address":null,"lat":"64.134468","lng":"-21.947079","icon":"http:\/\/chart.apis.google.com\/chart?cht=mm&chs=20x20&chco=FF00FF,FF00FF,000000&ext=.png","icon_size":"20x20","icon_width":"20","icon_height":"20","icon_anchor_width":10,"icon_anchor_height":"20","zindex":1},"122":{"name":"Framkv\u00e6mdarsvi\u00f0 - Jafnasel","url":"\/locations\/122","devices":"1","image":"\/datastore\/image\/\/thumb1","address":null,"lat":"64.097824","lng":"-21.827505","icon":"http:\/\/chart.apis.google.com\/chart?cht=mm&chs=20x20&chco=FF00FF,FF00FF,000000&ext=.png","icon_size":"20x20","icon_width":"20","icon_height":"20","icon_anchor_width":10,"icon_anchor_height":"20","zindex":1},"126":{"name":"F\u00e9l\u00f3 - Droplaugasta\u00f0ir","url":"\/locations\/126","devices":"2","image":"\/datastore\/image\/\/thumb1","address":null,"lat":"64.140648","lng":"-21.920803","icon":"http:\/\/chart.apis.google.com\/chart?cht=mm&chs=20x20&chco=FF00FF,FF00FF,000000&ext=.png","icon_size":"20x20","icon_width":"20","icon_height":"20","icon_anchor_width":10,"icon_anchor_height":"20","zindex":1},"128":{"name":"F\u00e9l\u00f3 - Dalbraut 21-27","url":"\/locations\/128","devices":"2","image":"\/datastore\/image\/\/thumb1","address":null,"lat":"64.147392","lng":"-21.874166","icon":"http:\/\/chart.apis.google.com\/chart?cht=mm&chs=20x20&chco=FF00FF,FF00FF,000000&ext=.png","icon_size":"20x20","icon_width":"20","icon_height":"20","icon_anchor_width":10,"icon_anchor_height":"20","zindex":1},"129":{"name":"F\u00e9l\u00f3 - B\u00f3lsta\u00f0arhl\u00ed\u00f0","url":"\/locations\/129","devices":"1","image":"\/datastore\/image\/\/thumb1","address":null,"lat":"64.136009","lng":"-21.899860","icon":"http:\/\/chart.apis.google.com\/chart?cht=mm&chs=20x20&chco=FF00FF,FF00FF,000000&ext=.png","icon_size":"20x20","icon_width":"20","icon_height":"20","icon_anchor_width":10,"icon_anchor_height":"20","zindex":1},"130":{"name":"\u00dej\u00f3nustumi\u00f0st\u00f6\u00f0 - Sk\u00falag\u00f6tu","url":"\/locations\/130","devices":"3","image":"\/datastore\/image\/\/thumb1","address":null,"lat":"64.145180","lng":"-21.915810","icon":"http:\/\/chart.apis.google.com\/chart?cht=mm&chs=20x20&chco=FF00FF,FF00FF,000000&ext=.png","icon_size":"20x20","icon_width":"20","icon_height":"20","icon_anchor_width":10,"icon_anchor_height":"20","zindex":1},"134":{"name":"F\u00e9l\u00f3 - \u00c1rsk\u00f3gar","url":"\/locations\/134","devices":"1","image":"\/datastore\/image\/cdcf90cd930a6914db2272554ab2207a\/thumb1","address":null,"lat":"64.105659","lng":"-21.845444","icon":"http:\/\/chart.apis.google.com\/chart?cht=mm&chs=20x20&chco=FF00FF,FF00FF,000000&ext=.png","icon_size":"20x20","icon_width":"20","icon_height":"20","icon_anchor_width":10,"icon_anchor_height":"20","zindex":1},"135":{"name":"F\u00e9l\u00f3 - Hraunb\u00e6r","url":"\/locations\/135","devices":"1","image":"\/datastore\/image\/a75db06157d2b72b011ab217aa407764\/thumb1","address":null,"lat":"64.120285","lng":"-21.809566","icon":"http:\/\/chart.apis.google.com\/chart?cht=mm&chs=20x20&chco=FF00FF,FF00FF,000000&ext=.png","icon_size":"20x20","icon_width":"20","icon_height":"20","icon_anchor_width":10,"icon_anchor_height":"20","zindex":1},"136":{"name":"Ulj\u00f3s: B\u00fasta\u00f0avegur-Hringbraut (","url":"\/locations\/136","devices":"1","image":"\/datastore\/image\/\/thumb1","address":null,"lat":"64.135269","lng":"-21.923819","icon":"http:\/\/chart.apis.google.com\/chart?cht=mm&chs=20x20&chco=FF00FF,FF00FF,000000&ext=.png","icon_size":"20x20","icon_width":"20","icon_height":"20","icon_anchor_width":10,"icon_anchor_height":"20","zindex":1},"137":{"name":"Fellask\u00f3li - Tengipunktur","url":"\/locations\/137","devices":"3","image":"\/datastore\/image\/\/thumb1","address":null,"lat":"64.102585","lng":"-21.821938","icon":"http:\/\/chart.apis.google.com\/chart?cht=mm&chs=20x20&chco=FF00FF,FF00FF,000000&ext=.png","icon_size":"20x20","icon_width":"20","icon_height":"20","icon_anchor_width":10,"icon_anchor_height":"20","zindex":1},"138":{"name":"F\u00e9l\u00f3 - Hvassaleiti","url":"\/locations\/138","devices":"0","image":"\/datastore\/image\/\/thumb1","address":null,"lat":"64.128418","lng":"-21.893284","icon":"http:\/\/chart.apis.google.com\/chart?cht=mm&chs=20x20&chco=FF00FF,FF00FF,000000&ext=.png","icon_size":"20x20","icon_width":"20","icon_height":"20","icon_anchor_width":10,"icon_anchor_height":"20","zindex":1},"139":{"name":"Gr\u00f3farh\u00fas - Tengipunktur","url":"\/locations\/139","devices":"1","image":"\/datastore\/image\/\/thumb1","address":null,"lat":"64.149483","lng":"-21.941393","icon":"http:\/\/chart.apis.google.com\/chart?cht=mm&chs=20x20&chco=FF00FF,FF00FF,000000&ext=.png","icon_size":"20x20","icon_width":"20","icon_height":"20","icon_anchor_width":10,"icon_anchor_height":"20","zindex":1},"140":{"name":"UTM - H\u00f6f\u00f0atorg","url":"\/locations\/140","devices":"0","image":"\/datastore\/image\/\/thumb1","address":null,"lat":"64.145042","lng":"-21.908262","icon":"http:\/\/chart.apis.google.com\/chart?cht=mm&chs=20x20&chco=FF00FF,FF00FF,000000&ext=.png","icon_size":"20x20","icon_width":"20","icon_height":"20","icon_anchor_width":10,"icon_anchor_height":"20","zindex":1},"142":{"name":"Hvassaleitissk\u00f3li","url":"\/locations\/142","devices":"7","image":"\/datastore\/image\/\/thumb1","address":null,"lat":"64.127876","lng":"-21.882587","icon":"http:\/\/chart.apis.google.com\/chart?cht=mm&chs=20x20&chco=FF00FF,FF00FF,000000&ext=.png","icon_size":"20x20","icon_width":"20","icon_height":"20","icon_anchor_width":10,"icon_anchor_height":"20","zindex":1},"143":{"name":"Laugarnessk\u00f3li","url":"\/locations\/143","devices":"8","image":"\/datastore\/image\/\/thumb1","address":null,"lat":"64.144562","lng":"-21.884766","icon":"http:\/\/chart.apis.google.com\/chart?cht=mm&chs=20x20&chco=FF00FF,FF00FF,000000&ext=.png","icon_size":"20x20","icon_width":"20","icon_height":"20","icon_anchor_width":10,"icon_anchor_height":"20","zindex":1},"144":{"name":"Borgask\u00f3li","url":"\/locations\/144","devices":"6","image":"\/datastore\/image\/\/thumb1","address":null,"lat":"64.153084","lng":"-21.792036","icon":"http:\/\/chart.apis.google.com\/chart?cht=mm&chs=20x20&chco=FF00FF,FF00FF,000000&ext=.png","icon_size":"20x20","icon_width":"20","icon_height":"20","icon_anchor_width":10,"icon_anchor_height":"20","zindex":1},"145":{"name":"Kl\u00e9bergssk\u00f3li","url":"\/locations\/145","devices":"8","image":"\/datastore\/image\/\/thumb1","address":null,"lat":"64.237572","lng":"-21.825735","icon":"http:\/\/chart.apis.google.com\/chart?cht=mm&chs=20x20&chco=FF00FF,FF00FF,000000&ext=.png","icon_size":"20x20","icon_width":"20","icon_height":"20","icon_anchor_width":10,"icon_anchor_height":"20","zindex":1},"146":{"name":"M\u00fali - Tengipunktur","url":"\/locations\/146","devices":"6","image":"\/datastore\/image\/\/thumb1","address":null,"lat":"64.134224","lng":"-21.874531","icon":"http:\/\/chart.apis.google.com\/chart?cht=mm&chs=20x20&chco=FF00FF,FF00FF,000000&ext=.png","icon_size":"20x20","icon_width":"20","icon_height":"20","icon_anchor_width":10,"icon_anchor_height":"20","zindex":1},"147":{"name":"Engjask\u00f3li","url":"\/locations\/147","devices":"8","image":"\/datastore\/image\/\/thumb1","address":null,"lat":"64.149300","lng":"-21.776394","icon":"http:\/\/chart.apis.google.com\/chart?cht=mm&chs=20x20&chco=FF00FF,FF00FF,000000&ext=.png","icon_size":"20x20","icon_width":"20","icon_height":"20","icon_anchor_width":10,"icon_anchor_height":"20","zindex":1},"149":{"name":"Hamrask\u00f3li - Tengipunktur","url":"\/locations\/149","devices":"2","image":"\/datastore\/image\/\/thumb1","address":null,"lat":"64.137840","lng":"-21.813076","icon":"http:\/\/chart.apis.google.com\/chart?cht=mm&chs=20x20&chco=FF00FF,FF00FF,000000&ext=.png","icon_size":"20x20","icon_width":"20","icon_height":"20","icon_anchor_width":10,"icon_anchor_height":"20","zindex":1},"150":{"name":"\u00cdTR - Egilsh\u00f6ll","url":"\/locations\/150","devices":"1","image":"\/datastore\/image\/\/thumb1","address":null,"lat":"64.146965","lng":"-21.771339","icon":"http:\/\/chart.apis.google.com\/chart?cht=mm&chs=20x20&chco=FF00FF,FF00FF,000000&ext=.png","icon_size":"20x20","icon_width":"20","icon_height":"20","icon_anchor_width":10,"icon_anchor_height":"20","zindex":1},"153":{"name":"LSR Dvergasteinn","url":"\/locations\/153","devices":"1","image":"\/datastore\/image\/b681713d3f0e2115fc010341d45ec1cb\/thumb1","address":null,"lat":"64.151451","lng":"-21.955093","icon":"http:\/\/chart.apis.google.com\/chart?cht=mm&chs=20x20&chco=00a6ff,00a6ff,000000&ext=.png","icon_size":"20x20","icon_width":"20","icon_height":"20","icon_anchor_width":10,"icon_anchor_height":"20","zindex":1},"156":{"name":"Framkv\u00e6mdarsvi\u00f0, Kjalarnesi","url":"\/locations\/156","devices":"1","image":"\/datastore\/image\/\/thumb1","address":null,"lat":"64.242027","lng":"-21.833246","icon":"http:\/\/chart.apis.google.com\/chart?cht=mm&chs=20x20&chco=FF00FF,FF00FF,000000&ext=.png","icon_size":"20x20","icon_width":"20","icon_height":"20","icon_anchor_width":10,"icon_anchor_height":"20","zindex":1},"157":{"name":"\u00cdTR - Kl\u00e9bergslaug","url":"\/locations\/157","devices":"0","image":"\/datastore\/image\/\/thumb1","address":null,"lat":"64.237465","lng":"-21.827581","icon":"http:\/\/chart.apis.google.com\/chart?cht=mm&chs=20x20&chco=FF00FF,FF00FF,000000&ext=.png","icon_size":"20x20","icon_width":"20","icon_height":"20","icon_anchor_width":10,"icon_anchor_height":"20","zindex":1},"158":{"name":"LSR Hof","url":"\/locations\/158","devices":"0","image":"\/datastore\/image\/db7b1d26eecc132808ad1c652f86702d\/thumb1","address":null,"lat":"64.144020","lng":"-21.885399","icon":"http:\/\/chart.apis.google.com\/chart?cht=mm&chs=20x20&chco=00a6ff,00a6ff,000000&ext=.png","icon_size":"20x20","icon_width":"20","icon_height":"20","icon_anchor_width":10,"icon_anchor_height":"20","zindex":1},"159":{"name":"\u00cdTR - Sk\u00fdjaborgir","url":"\/locations\/159","devices":"0","image":"\/datastore\/image\/\/thumb1","address":null,"lat":"64.149368","lng":"-21.957094","icon":"http:\/\/chart.apis.google.com\/chart?cht=mm&chs=20x20&chco=FF00FF,FF00FF,000000&ext=.png","icon_size":"20x20","icon_width":"20","icon_height":"20","icon_anchor_width":10,"icon_anchor_height":"20","zindex":1},"160":{"name":"S\u00ed\u00f0um\u00fali (RAI) - FrameRelay","url":"\/locations\/160","devices":"0","image":"\/datastore\/image\/\/thumb1","address":null,"lat":"64.131271","lng":"-21.876514","icon":"http:\/\/chart.apis.google.com\/chart?cht=mm&chs=20x20&chco=00a6ff,00a6ff,000000&ext=.png","icon_size":"20x20","icon_width":"20","icon_height":"20","icon_anchor_width":10,"icon_anchor_height":"20","zindex":1},"161":{"name":"Heimahj\u00fakrun","url":"\/locations\/161","devices":"3","image":"\/datastore\/image\/\/thumb1","address":null,"lat":"64.109184","lng":"-21.843546","icon":"http:\/\/chart.apis.google.com\/chart?cht=mm&chs=20x20&chco=FF00FF,FF00FF,000000&ext=.png","icon_size":"20x20","icon_width":"20","icon_height":"20","icon_anchor_width":10,"icon_anchor_height":"20","zindex":1},"162":{"name":"\u00cdTR - Ylstr\u00f6nd","url":"\/locations\/162","devices":"1","image":"\/datastore\/image\/\/thumb1","address":null,"lat":"64.121597","lng":"-21.928699","icon":"http:\/\/chart.apis.google.com\/chart?cht=mm&chs=20x20&chco=FF00FF,FF00FF,000000&ext=.png","icon_size":"20x20","icon_width":"20","icon_height":"20","icon_anchor_width":10,"icon_anchor_height":"20","zindex":1},"164":{"name":"Hl\u00ed\u00f0ask\u00f3li - Tengipunktur","url":"\/locations\/164","devices":"2","image":"\/datastore\/image\/\/thumb1","address":null,"lat":"64.130981","lng":"-21.911652","icon":"http:\/\/chart.apis.google.com\/chart?cht=mm&chs=20x20&chco=FF00FF,FF00FF,000000&ext=.png","icon_size":"20x20","icon_width":"20","icon_height":"20","icon_anchor_width":10,"icon_anchor_height":"20","zindex":1},"165":{"name":"\u00cdTR - \u00cd\u00fer\u00f3ttah\u00fas Kennarah\u00e1sk\u00f3la ","url":"\/locations\/165","devices":"1","image":"\/datastore\/image\/\/thumb1","address":null,"lat":"64.137337","lng":"-21.900558","icon":"http:\/\/chart.apis.google.com\/chart?cht=mm&chs=20x20&chco=FF00FF,FF00FF,000000&ext=.png","icon_size":"20x20","icon_width":"20","icon_height":"20","icon_anchor_width":10,"icon_anchor_height":"20","zindex":1},"167":{"name":"Minjasafn - Landn\u00e1mssk\u00e1linn","url":"\/locations\/167","devices":"2","image":"\/datastore\/image\/6289d98825cad16b3025e97e4f255aaf\/thumb1","address":null,"lat":"64.147369","lng":"-21.942846","icon":"http:\/\/chart.apis.google.com\/chart?cht=mm&chs=20x20&chco=FF00FF,FF00FF,000000&ext=.png","icon_size":"20x20","icon_width":"20","icon_height":"20","icon_anchor_width":10,"icon_anchor_height":"20","zindex":1},"170":{"name":"Dalsk\u00f3li","url":"\/locations\/170","devices":"6","image":"\/datastore\/image\/\/thumb1","address":null,"lat":"64.132675","lng":"-21.743402","icon":"http:\/\/chart.apis.google.com\/chart?cht=mm&chs=20x20&chco=FF00FF,FF00FF,000000&ext=.png","icon_size":"20x20","icon_width":"20","icon_height":"20","icon_anchor_width":10,"icon_anchor_height":"20","zindex":1},"173":{"name":"Vi\u00f0ey","url":"\/locations\/173","devices":"1","image":"\/datastore\/image\/78c8a190c3a7bf46cad04949069b2cc4\/thumb1","address":null,"lat":"64.163094","lng":"-21.855503","icon":"http:\/\/chart.apis.google.com\/chart?cht=mm&chs=20x20&chco=FF00FF,FF00FF,000000&ext=.png","icon_size":"20x20","icon_width":"20","icon_height":"20","icon_anchor_width":10,"icon_anchor_height":"20","zindex":1},"174":{"name":"\u00cdTR - Siglunes","url":"\/locations\/174","devices":"2","image":"\/datastore\/image\/\/thumb1","address":null,"lat":"64.121628","lng":"-21.927359","icon":"http:\/\/chart.apis.google.com\/chart?cht=mm&chs=20x20&chco=FF00FF,FF00FF,000000&ext=.png","icon_size":"20x20","icon_width":"20","icon_height":"20","icon_anchor_width":10,"icon_anchor_height":"20","zindex":1},"177":{"name":"Unglingasmi\u00f0jan Tr\u00f6\u00f0","url":"\/locations\/177","devices":"0","image":"\/datastore\/image\/\/thumb1","address":null,"lat":"64.102325","lng":"-21.813322","icon":"http:\/\/chart.apis.google.com\/chart?cht=mm&chs=20x20&chco=FF00FF,FF00FF,000000&ext=.png","icon_size":"20x20","icon_width":"20","icon_height":"20","icon_anchor_width":10,"icon_anchor_height":"20","zindex":1},"178":{"name":"FAX - \u00cdsheimar 2","url":"\/locations\/178","devices":"1","image":"\/datastore\/image\/\/thumb1","address":null,"lat":"64.135689","lng":"-21.844082","icon":"http:\/\/chart.apis.google.com\/chart?cht=mm&chs=20x20&chco=FF00FF,FF00FF,000000&ext=.png","icon_size":"20x20","icon_width":"20","icon_height":"20","icon_anchor_width":10,"icon_anchor_height":"20","zindex":1},"179":{"name":"FAX - Byko, v\u00f6ruh\u00fas","url":"\/locations\/179","devices":"1","image":"\/datastore\/image\/7c0606f3804d5cd6e4788f6560cf3627\/thumb1","address":null,"lat":"64.137573","lng":"-21.840347","icon":"http:\/\/chart.apis.google.com\/chart?cht=mm&chs=20x20&chco=FF00FF,FF00FF,000000&ext=.png","icon_size":"20x20","icon_width":"20","icon_height":"20","icon_anchor_width":10,"icon_anchor_height":"20","zindex":1},"181":{"name":"FAX - Kornhla\u00f0an","url":"\/locations\/181","devices":"1","image":"\/datastore\/image\/62f5693f719886f9761b0501ca448eb3\/thumb1","address":null,"lat":"64.151352","lng":"-21.859392","icon":"http:\/\/chart.apis.google.com\/chart?cht=mm&chs=20x20&chco=FF00FF,FF00FF,000000&ext=.png","icon_size":"20x20","icon_width":"20","icon_height":"20","icon_anchor_width":10,"icon_anchor_height":"20","zindex":1},"182":{"name":"Afritun - Ingunnarsk\u00f3li","url":"\/locations\/182","devices":"1","image":"\/datastore\/image\/\/thumb1","address":null,"lat":"64.126083","lng":"-21.758509","icon":"http:\/\/chart.apis.google.com\/chart?cht=mm&chs=20x20&chco=FF00FF,FF00FF,000000&ext=.png","icon_size":"20x20","icon_width":"20","icon_height":"20","icon_anchor_width":10,"icon_anchor_height":"20","zindex":1},"183":{"name":"Sk\u00falagata 74","url":"\/locations\/183","devices":"0","image":"\/datastore\/image\/\/thumb1","address":null,"lat":"64.143532","lng":"-21.909130","icon":"http:\/\/chart.apis.google.com\/chart?cht=mm&chs=20x20&chco=FF00FF,FF00FF,000000&ext=.png","icon_size":"20x20","icon_width":"20","icon_height":"20","icon_anchor_width":10,"icon_anchor_height":"20","zindex":1},"185":{"name":"Einarsnes","url":"\/locations\/185","devices":"1","image":"\/datastore\/image\/\/thumb1","address":null,"lat":"64.129150","lng":"-21.949953","icon":"http:\/\/chart.apis.google.com\/chart?cht=mm&chs=20x20&chco=FF00FF,FF00FF,000000&ext=.png","icon_size":"20x20","icon_width":"20","icon_height":"20","icon_anchor_width":10,"icon_anchor_height":"20","zindex":1},"186":{"name":"\u00deorrasel","url":"\/locations\/186","devices":"0","image":"\/datastore\/image\/\/thumb1","address":null,"lat":"64.134415","lng":"-21.955679","icon":"http:\/\/chart.apis.google.com\/chart?cht=mm&chs=20x20&chco=FF00FF,FF00FF,000000&ext=.png","icon_size":"20x20","icon_width":"20","icon_height":"20","icon_anchor_width":10,"icon_anchor_height":"20","zindex":1},"187":{"name":"Gistisk\u00fdli\u00f0 \u00deingholtstr\u00e6ti","url":"\/locations\/187","devices":"1","image":"\/datastore\/image\/\/thumb1","address":null,"lat":"64.144821","lng":"-21.935717","icon":"http:\/\/chart.apis.google.com\/chart?cht=mm&chs=20x20&chco=FF00FF,FF00FF,000000&ext=.png","icon_size":"20x20","icon_width":"20","icon_height":"20","icon_anchor_width":10,"icon_anchor_height":"20","zindex":1},"188":{"name":"Vistheimili Barna","url":"\/locations\/188","devices":"0","image":"\/datastore\/image\/\/thumb1","address":null,"lat":"64.142937","lng":"-21.868050","icon":"http:\/\/chart.apis.google.com\/chart?cht=mm&chs=20x20&chco=FF00FF,FF00FF,000000&ext=.png","icon_size":"20x20","icon_width":"20","icon_height":"20","icon_anchor_width":10,"icon_anchor_height":"20","zindex":1},"190":{"name":"Amtmannsst\u00edgur 5","url":"\/locations\/190","devices":"1","image":"\/datastore\/image\/\/thumb1","address":null,"lat":"64.146149","lng":"-21.935015","icon":"http:\/\/chart.apis.google.com\/chart?cht=mm&chs=20x20&chco=FF00FF,FF00FF,000000&ext=.png","icon_size":"20x20","icon_width":"20","icon_height":"20","icon_anchor_width":10,"icon_anchor_height":"20","zindex":1},"191":{"name":"Sk\u00falagata 46","url":"\/locations\/191","devices":"1","image":"\/datastore\/image\/\/thumb1","address":null,"lat":"64.144485","lng":"-21.915525","icon":"http:\/\/chart.apis.google.com\/chart?cht=mm&chs=20x20&chco=FF00FF,FF00FF,000000&ext=.png","icon_size":"20x20","icon_width":"20","icon_height":"20","icon_anchor_width":10,"icon_anchor_height":"20","zindex":1},"192":{"name":"Faxafl\u00f3ahafnir - Grundartangi","url":"\/locations\/192","devices":"1","image":"\/datastore\/image\/\/thumb1","address":null,"lat":"64.356300","lng":"-21.786188","icon":"http:\/\/chart.apis.google.com\/chart?cht=mm&chs=20x20&chco=FF00FF,FF00FF,000000&ext=.png","icon_size":"20x20","icon_width":"20","icon_height":"20","icon_anchor_width":10,"icon_anchor_height":"20","zindex":1},"193":{"name":"Langahl\u00ed\u00f0 3","url":"\/locations\/193","devices":"1","image":"\/datastore\/image\/\/thumb1","address":null,"lat":"64.137360","lng":"-21.907984","icon":"http:\/\/chart.apis.google.com\/chart?cht=mm&chs=20x20&chco=FF00FF,FF00FF,000000&ext=.png","icon_size":"20x20","icon_width":"20","icon_height":"20","icon_anchor_width":10,"icon_anchor_height":"20","zindex":1},"194":{"name":"H\u00e1t\u00fan 10","url":"\/locations\/194","devices":"1","image":"\/datastore\/image\/\/thumb1","address":null,"lat":"64.141342","lng":"-21.895601","icon":"http:\/\/chart.apis.google.com\/chart?cht=mm&chs=20x20&chco=FF00FF,FF00FF,000000&ext=.png","icon_size":"20x20","icon_width":"20","icon_height":"20","icon_anchor_width":10,"icon_anchor_height":"20","zindex":1},"195":{"name":"F\u00e9l\u00f3 - Dalbraut 18","url":"\/locations\/195","devices":"0","image":"\/datastore\/image\/\/thumb1","address":null,"lat":"64.147255","lng":"-21.875685","icon":"http:\/\/chart.apis.google.com\/chart?cht=mm&chs=20x20&chco=FF00FF,FF00FF,000000&ext=.png","icon_size":"20x20","icon_width":"20","icon_height":"20","icon_anchor_width":10,"icon_anchor_height":"20","zindex":1},"197":{"name":"F\u00e9l\u00f3 - H\u00e6\u00f0argar\u00f0ur 31 ni\u00f0ri","url":"\/locations\/197","devices":"1","image":"\/datastore\/image\/be8e2379737bd40f9cc4b49fff3ed2a0\/thumb1","address":null,"lat":"64.123871","lng":"-21.869617","icon":"http:\/\/chart.apis.google.com\/chart?cht=mm&chs=20x20&chco=FF00FF,FF00FF,000000&ext=.png","icon_size":"20x20","icon_width":"20","icon_height":"20","icon_anchor_width":10,"icon_anchor_height":"20","zindex":1},"198":{"name":"F\u00e9l\u00f3 - \u00c1lfaland 6","url":"\/locations\/198","devices":"1","image":"\/datastore\/image\/03f2a4ee064abf111ef7921504f0b301\/thumb1","address":null,"lat":"64.121201","lng":"-21.882587","icon":"http:\/\/chart.apis.google.com\/chart?cht=mm&chs=20x20&chco=FF00FF,FF00FF,000000&ext=.png","icon_size":"20x20","icon_width":"20","icon_height":"20","icon_anchor_width":10,"icon_anchor_height":"20","zindex":1},"199":{"name":"F\u00e9l\u00f3 - Hraunberg 15 (fremra h\u00fas)","url":"\/locations\/199","devices":"0","image":"\/datastore\/image\/\/thumb1","address":null,"lat":"64.105583","lng":"-21.811954","icon":"http:\/\/chart.apis.google.com\/chart?cht=mm&chs=20x20&chco=FF00FF,FF00FF,000000&ext=.png","icon_size":"20x20","icon_width":"20","icon_height":"20","icon_anchor_width":10,"icon_anchor_height":"20","zindex":1},"201":{"name":"Borgarskjalasafn - Fjargeymsla","url":"\/locations\/201","devices":"0","image":"\/datastore\/image\/fb76cb1c7ea64137c3b2ce43667e5bfc\/thumb1","address":null,"lat":"64.144127","lng":"-21.852880","icon":"http:\/\/chart.apis.google.com\/chart?cht=mm&chs=20x20&chco=FF00FF,FF00FF,000000&ext=.png","icon_size":"20x20","icon_width":"20","icon_height":"20","icon_anchor_width":10,"icon_anchor_height":"20","zindex":1},"202":{"name":"Ulj\u00f3s: Laugarvegur-N\u00f3at\u00fan (0635)","url":"\/locations\/202","devices":"1","image":"\/datastore\/image\/\/thumb1","address":null,"lat":"64.142311","lng":"-21.904013","icon":"http:\/\/chart.apis.google.com\/chart?cht=mm&chs=20x20&chco=15ff00,15ff00,000000&ext=.png","icon_size":"20x20","icon_width":"20","icon_height":"20","icon_anchor_width":10,"icon_anchor_height":"20","zindex":1},"203":{"name":"Ulj\u00f3s: Su\u00f0urlandsbraut - Reykjav","url":"\/locations\/203","devices":"1","image":"\/datastore\/image\/\/thumb1","address":null,"lat":"64.140213","lng":"-21.883425","icon":"http:\/\/chart.apis.google.com\/chart?cht=mm&chs=20x20&chco=15ff00,15ff00,000000&ext=.png","icon_size":"20x20","icon_width":"20","icon_height":"20","icon_anchor_width":10,"icon_anchor_height":"20","zindex":1},"204":{"name":"Ulj\u00f3s: Kringlum\u00fdrarbraut-Su\u00f0urla","url":"\/locations\/204","devices":"1","image":"\/datastore\/image\/\/thumb1","address":null,"lat":"64.140160","lng":"-21.893070","icon":"http:\/\/chart.apis.google.com\/chart?cht=mm&chs=20x20&chco=15ff00,15ff00,000000&ext=.png","icon_size":"20x20","icon_width":"20","icon_height":"20","icon_anchor_width":10,"icon_anchor_height":"20","zindex":1},"205":{"name":"Ulj\u00f3s: Su\u00f0urlandsbraut - Vegm\u00fali","url":"\/locations\/205","devices":"1","image":"\/datastore\/image\/\/thumb1","address":null,"lat":"64.138649","lng":"-21.878597","icon":"http:\/\/chart.apis.google.com\/chart?cht=mm&chs=20x20&chco=15ff00,15ff00,000000&ext=.png","icon_size":"20x20","icon_width":"20","icon_height":"20","icon_anchor_width":10,"icon_anchor_height":"20","zindex":1},"206":{"name":"Ulj\u00f3s: Kringlum\u00fdrarbraut - H\u00e1ale","url":"\/locations\/206","devices":"1","image":"\/datastore\/image\/\/thumb1","address":null,"lat":"64.138252","lng":"-21.893864","icon":"http:\/\/chart.apis.google.com\/chart?cht=mm&chs=20x20&chco=15ff00,15ff00,000000&ext=.png","icon_size":"20x20","icon_width":"20","icon_height":"20","icon_anchor_width":10,"icon_anchor_height":"20","zindex":1},"207":{"name":"Ulj\u00f3s: Vegm\u00fali-\u00c1rm\u00fali (0981)","url":"\/locations\/207","devices":"1","image":"\/datastore\/image\/\/thumb1","address":null,"lat":"64.137749","lng":"-21.881439","icon":"http:\/\/chart.apis.google.com\/chart?cht=mm&chs=20x20&chco=FF00FF,FF00FF,000000&ext=.png","icon_size":"20x20","icon_width":"20","icon_height":"20","icon_anchor_width":10,"icon_anchor_height":"20","zindex":1},"208":{"name":"Ulj\u00f3s: H\u00e1aleitisbraut - \u00c1rm\u00fali (","url":"\/locations\/208","devices":"1","image":"\/datastore\/image\/\/thumb1","address":null,"lat":"64.137360","lng":"-21.889658","icon":"http:\/\/chart.apis.google.com\/chart?cht=mm&chs=20x20&chco=FF00FF,FF00FF,000000&ext=.png","icon_size":"20x20","icon_width":"20","icon_height":"20","icon_anchor_width":10,"icon_anchor_height":"20","zindex":1},"209":{"name":"Ulj\u00f3s: Miklabraut-Langahl\u00ed\u00f0 (116","url":"\/locations\/209","devices":"1","image":"\/datastore\/image\/\/thumb1","address":null,"lat":"64.135063","lng":"-21.910429","icon":"http:\/\/chart.apis.google.com\/chart?cht=mm&chs=20x20&chco=15ff00,15ff00,000000&ext=.png","icon_size":"20x20","icon_width":"20","icon_height":"20","icon_anchor_width":10,"icon_anchor_height":"20","zindex":1},"210":{"name":"Ulj\u00f3s: Hafnarfjar\u00f0arvegur-V\u00edfils","url":"\/locations\/210","devices":"1","image":"\/datastore\/image\/\/thumb1","address":null,"lat":"64.090752","lng":"-21.928368","icon":"http:\/\/chart.apis.google.com\/chart?cht=mm&chs=20x20&chco=15ff00,15ff00,000000&ext=.png","icon_size":"20x20","icon_width":"20","icon_height":"20","icon_anchor_width":10,"icon_anchor_height":"20","zindex":1},"211":{"name":"Ulj\u00f3s: Su\u00f0urlandsbraut-\u00c1lfheimar","url":"\/locations\/211","devices":"1","image":"\/datastore\/image\/\/thumb1","address":null,"lat":"64.132927","lng":"-21.868383","icon":"http:\/\/chart.apis.google.com\/chart?cht=mm&chs=20x20&chco=15ff00,15ff00,000000&ext=.png","icon_size":"20x20","icon_width":"20","icon_height":"20","icon_anchor_width":10,"icon_anchor_height":"20","zindex":1},"212":{"name":"Ulj\u00f3s: Miklabraut-Kringlum\u00fdrarbr","url":"\/locations\/212","devices":"1","image":"\/datastore\/image\/\/thumb1","address":null,"lat":"64.133133","lng":"-21.898069","icon":"http:\/\/chart.apis.google.com\/chart?cht=mm&chs=20x20&chco=15ff00,15ff00,000000&ext=.png","icon_size":"20x20","icon_width":"20","icon_height":"20","icon_anchor_width":10,"icon_anchor_height":"20","zindex":1},"213":{"name":"Ulj\u00f3s: Grens\u00e1svegur-\u00c1rm\u00fali (2644","url":"\/locations\/213","devices":"1","image":"\/datastore\/image\/\/thumb1","address":null,"lat":"64.133400","lng":"-21.873264","icon":"http:\/\/chart.apis.google.com\/chart?cht=mm&chs=20x20&chco=15ff00,15ff00,000000&ext=.png","icon_size":"20x20","icon_width":"20","icon_height":"20","icon_anchor_width":10,"icon_anchor_height":"20","zindex":1},"214":{"name":"Ulj\u00f3s: Su\u00f0urlandsbraut-Faxafen (","url":"\/locations\/214","devices":"1","image":"\/datastore\/image\/\/thumb1","address":null,"lat":"64.131622","lng":"-21.866013","icon":"http:\/\/chart.apis.google.com\/chart?cht=mm&chs=20x20&chco=15ff00,15ff00,000000&ext=.png","icon_size":"20x20","icon_width":"20","icon_height":"20","icon_anchor_width":10,"icon_anchor_height":"20","zindex":1},"215":{"name":"Ulj\u00f3s: Miklabraut-H\u00e1aleitisbraut","url":"\/locations\/215","devices":"1","image":"\/datastore\/image\/\/thumb1","address":null,"lat":"64.130966","lng":"-21.883694","icon":"http:\/\/chart.apis.google.com\/chart?cht=mm&chs=20x20&chco=15ff00,15ff00,000000&ext=.png","icon_size":"20x20","icon_width":"20","icon_height":"20","icon_anchor_width":10,"icon_anchor_height":"20","zindex":1},"216":{"name":"Ulj\u00f3s: Grens\u00e1svegur-Fellsm\u00fali (1","url":"\/locations\/216","devices":"1","image":"\/datastore\/image\/\/thumb1","address":null,"lat":"64.130775","lng":"-21.874327","icon":"http:\/\/chart.apis.google.com\/chart?cht=mm&chs=20x20&chco=FF00FF,FF00FF,000000&ext=.png","icon_size":"20x20","icon_width":"20","icon_height":"20","icon_anchor_width":10,"icon_anchor_height":"20","zindex":1},"217":{"name":"Ulj\u00f3s: Kringlum\u00fdrabraut-Hamrahl\u00ed","url":"\/locations\/217","devices":"1","image":"\/datastore\/image\/\/thumb1","address":null,"lat":"64.130524","lng":"-21.899937","icon":"http:\/\/chart.apis.google.com\/chart?cht=mm&chs=20x20&chco=15ff00,15ff00,000000&ext=.png","icon_size":"20x20","icon_width":"20","icon_height":"20","icon_anchor_width":10,"icon_anchor_height":"20","zindex":1},"218":{"name":"Ulj\u00f3s: Miklabraut-Grens\u00e1svegur (","url":"\/locations\/218","devices":"1","image":"\/datastore\/image\/\/thumb1","address":null,"lat":"64.129524","lng":"-21.875410","icon":"http:\/\/chart.apis.google.com\/chart?cht=mm&chs=20x20&chco=15ff00,15ff00,000000&ext=.png","icon_size":"20x20","icon_width":"20","icon_height":"20","icon_anchor_width":10,"icon_anchor_height":"20","zindex":1},"219":{"name":"Ulj\u00f3s: Kringlum\u00fdrarbraut-Listabr","url":"\/locations\/219","devices":"1","image":"\/datastore\/image\/\/thumb1","address":null,"lat":"64.129074","lng":"-21.900129","icon":"http:\/\/chart.apis.google.com\/chart?cht=mm&chs=20x20&chco=15ff00,15ff00,000000&ext=.png","icon_size":"20x20","icon_width":"20","icon_height":"20","icon_anchor_width":10,"icon_anchor_height":"20","zindex":1},"220":{"name":"Ulj\u00f3s: Listabraut-Kringlan V (14","url":"\/locations\/220","devices":"1","image":"\/datastore\/image\/\/thumb1","address":null,"lat":"64.128723","lng":"-21.898348","icon":"http:\/\/chart.apis.google.com\/chart?cht=mm&chs=20x20&chco=15ff00,15ff00,000000&ext=.png","icon_size":"20x20","icon_width":"20","icon_height":"20","icon_anchor_width":10,"icon_anchor_height":"20","zindex":1},"221":{"name":"Ulj\u00f3s: Listabraut-Kringlan A (14","url":"\/locations\/221","devices":"1","image":"\/datastore\/image\/\/thumb1","address":null,"lat":"64.128181","lng":"-21.894615","icon":"http:\/\/chart.apis.google.com\/chart?cht=mm&chs=20x20&chco=15ff00,15ff00,000000&ext=.png","icon_size":"20x20","icon_width":"20","icon_height":"20","icon_anchor_width":10,"icon_anchor_height":"20","zindex":1},"222":{"name":"\u00c1lfabakki - Tengipunktur","url":"\/locations\/222","devices":"1","image":"\/datastore\/image\/\/thumb1","address":null,"lat":"64.108482","lng":"-21.843620","icon":"http:\/\/chart.apis.google.com\/chart?cht=mm&chs=20x20&chco=FF00FF,FF00FF,000000&ext=.png","icon_size":"20x20","icon_width":"20","icon_height":"20","icon_anchor_width":10,"icon_anchor_height":"20","zindex":1},"223":{"name":"Ulj\u00f3s: Hringbraut-Njar\u00f0argata (3","url":"\/locations\/223","devices":"1","image":"\/datastore\/image\/\/thumb1","address":null,"lat":"64.138649","lng":"-21.939783","icon":"http:\/\/chart.apis.google.com\/chart?cht=mm&chs=20x20&chco=15ff00,15ff00,000000&ext=.png","icon_size":"20x20","icon_width":"20","icon_height":"20","icon_anchor_width":10,"icon_anchor_height":"20","zindex":1},"224":{"name":"Ulj\u00f3s: Hringbraut-Vatnsm\u00fdrarvegu","url":"\/locations\/224","devices":"1","image":"\/datastore\/image\/\/thumb1","address":null,"lat":"64.136353","lng":"-21.932949","icon":"http:\/\/chart.apis.google.com\/chart?cht=mm&chs=20x20&chco=15ff00,15ff00,000000&ext=.png","icon_size":"20x20","icon_width":"20","icon_height":"20","icon_anchor_width":10,"icon_anchor_height":"20","zindex":1},"225":{"name":"Ulj\u00f3s: V\u00edfilsta\u00f0avegur-Litlat\u00fan ","url":"\/locations\/225","devices":"1","image":"\/datastore\/image\/\/thumb1","address":null,"lat":"64.089500","lng":"-21.925556","icon":"http:\/\/chart.apis.google.com\/chart?cht=mm&chs=20x20&chco=15ff00,15ff00,000000&ext=.png","icon_size":"20x20","icon_width":"20","icon_height":"20","icon_anchor_width":10,"icon_anchor_height":"20","zindex":1},"226":{"name":"Ulj\u00f3s: Hafnarfjar\u00f0arvegur-Lyng\u00e1s","url":"\/locations\/226","devices":"1","image":"\/datastore\/image\/\/thumb1","address":null,"lat":"64.088554","lng":"-21.934225","icon":"http:\/\/chart.apis.google.com\/chart?cht=mm&chs=20x20&chco=15ff00,15ff00,000000&ext=.png","icon_size":"20x20","icon_width":"20","icon_height":"20","icon_anchor_width":10,"icon_anchor_height":"20","zindex":1},"227":{"name":"Ulj\u00f3s: Hafnarfjar\u00f0avegur-\u00c1lftane","url":"\/locations\/227","devices":"1","image":"\/datastore\/image\/\/thumb1","address":null,"lat":"64.083984","lng":"-21.942991","icon":"http:\/\/chart.apis.google.com\/chart?cht=mm&chs=20x20&chco=15ff00,15ff00,000000&ext=.png","icon_size":"20x20","icon_width":"20","icon_height":"20","icon_anchor_width":10,"icon_anchor_height":"20","zindex":1},"228":{"name":"Ulj\u00f3s: S\u00e6braut-Laugarnesvegur-Kl","url":"\/locations\/228","devices":"1","image":"\/datastore\/image\/\/thumb1","address":null,"lat":"64.149818","lng":"-21.888758","icon":"http:\/\/chart.apis.google.com\/chart?cht=mm&chs=20x20&chco=15ff00,15ff00,000000&ext=.png","icon_size":"20x20","icon_width":"20","icon_height":"20","icon_anchor_width":10,"icon_anchor_height":"20","zindex":1},"229":{"name":"Ulj\u00f3s: S\u00e6braut-Dalbraut (0060)","url":"\/locations\/229","devices":"1","image":"\/datastore\/image\/\/thumb1","address":null,"lat":"64.150192","lng":"-21.871902","icon":"http:\/\/chart.apis.google.com\/chart?cht=mm&chs=20x20&chco=15ff00,15ff00,000000&ext=.png","icon_size":"20x20","icon_width":"20","icon_height":"20","icon_anchor_width":10,"icon_anchor_height":"20","zindex":1},"230":{"name":"Ulj\u00f3s: S\u00e6braut-Kringlum\u00fdrarbraut","url":"\/locations\/230","devices":"1","image":"\/datastore\/image\/\/thumb1","address":null,"lat":"64.147461","lng":"-21.892727","icon":"http:\/\/chart.apis.google.com\/chart?cht=mm&chs=20x20&chco=15ff00,15ff00,000000&ext=.png","icon_size":"20x20","icon_width":"20","icon_height":"20","icon_anchor_width":10,"icon_anchor_height":"20","zindex":1},"231":{"name":"Ulj\u00f3s: Kringlum\u00fdrarbraut-Borgart","url":"\/locations\/231","devices":"1","image":"\/datastore\/image\/\/thumb1","address":null,"lat":"64.146378","lng":"-21.892813","icon":"http:\/\/chart.apis.google.com\/chart?cht=mm&chs=20x20&chco=15ff00,15ff00,000000&ext=.png","icon_size":"20x20","icon_width":"20","icon_height":"20","icon_anchor_width":10,"icon_anchor_height":"20","zindex":1},"232":{"name":"Ulj\u00f3s: S\u00e6braut-Langholtsvegur (0","url":"\/locations\/232","devices":"1","image":"\/datastore\/image\/\/thumb1","address":null,"lat":"64.145576","lng":"-21.857492","icon":"http:\/\/chart.apis.google.com\/chart?cht=mm&chs=20x20&chco=15ff00,15ff00,000000&ext=.png","icon_size":"20x20","icon_width":"20","icon_height":"20","icon_anchor_width":10,"icon_anchor_height":"20","zindex":1},"233":{"name":"Ulj\u00f3s: S\u00e6braut-S\u00e6gar\u00f0ar (0541)","url":"\/locations\/233","devices":"1","image":"\/datastore\/image\/\/thumb1","address":null,"lat":"64.143486","lng":"-21.852783","icon":"http:\/\/chart.apis.google.com\/chart?cht=mm&chs=20x20&chco=15ff00,15ff00,000000&ext=.png","icon_size":"20x20","icon_width":"20","icon_height":"20","icon_anchor_width":10,"icon_anchor_height":"20","zindex":1},"234":{"name":"Ulj\u00f3s: S\u00e6braut-Holtavegur (0744)","url":"\/locations\/234","devices":"1","image":"\/datastore\/image\/\/thumb1","address":null,"lat":"64.140747","lng":"-21.850454","icon":"http:\/\/chart.apis.google.com\/chart?cht=mm&chs=20x20&chco=15ff00,15ff00,000000&ext=.png","icon_size":"20x20","icon_width":"20","icon_height":"20","icon_anchor_width":10,"icon_anchor_height":"20","zindex":1},"235":{"name":"Ulj\u00f3s: S\u00e6braut-Kleppsm\u00fdrarvegur ","url":"\/locations\/235","devices":"1","image":"\/datastore\/image\/\/thumb1","address":null,"lat":"64.134270","lng":"-21.849833","icon":"http:\/\/chart.apis.google.com\/chart?cht=mm&chs=20x20&chco=15ff00,15ff00,000000&ext=.png","icon_size":"20x20","icon_width":"20","icon_height":"20","icon_anchor_width":10,"icon_anchor_height":"20","zindex":1},"236":{"name":"Ulj\u00f3s: Langholtsvegur-Skei\u00f0arvog","url":"\/locations\/236","devices":"1","image":"\/datastore\/image\/\/thumb1","address":null,"lat":"64.133438","lng":"-21.853825","icon":"http:\/\/chart.apis.google.com\/chart?cht=mm&chs=20x20&chco=15ff00,15ff00,000000&ext=.png","icon_size":"20x20","icon_width":"20","icon_height":"20","icon_anchor_width":10,"icon_anchor_height":"20","zindex":1},"237":{"name":"Ulj\u00f3s: S\u00e6braut-S\u00fa\u00f0arvogur (1476)","url":"\/locations\/237","devices":"1","image":"\/datastore\/image\/\/thumb1","address":null,"lat":"64.128296","lng":"-21.849220","icon":"http:\/\/chart.apis.google.com\/chart?cht=mm&chs=20x20&chco=15ff00,15ff00,000000&ext=.png","icon_size":"20x20","icon_width":"20","icon_height":"20","icon_anchor_width":10,"icon_anchor_height":"20","zindex":1},"238":{"name":"Ulj\u00f3s: Kleppsm\u00fdrarvegur-S\u00fa\u00f0arvog","url":"\/locations\/238","devices":"1","image":"\/datastore\/image\/\/thumb1","address":null,"lat":"64.134529","lng":"-21.846743","icon":"http:\/\/chart.apis.google.com\/chart?cht=mm&chs=20x20&chco=15ff00,15ff00,000000&ext=.png","icon_size":"20x20","icon_width":"20","icon_height":"20","icon_anchor_width":10,"icon_anchor_height":"20","zindex":1},"239":{"name":"LSR J\u00f6rfi","url":"\/locations\/239","devices":"1","image":"\/datastore\/image\/ea0458aea3a0bceae771de14b6e6ae74\/thumb1","address":null,"lat":"64.124229","lng":"-21.872213","icon":"http:\/\/chart.apis.google.com\/chart?cht=mm&chs=20x20&chco=00a6ff,00a6ff,000000&ext=.png","icon_size":"20x20","icon_width":"20","icon_height":"20","icon_anchor_width":10,"icon_anchor_height":"20","zindex":1},"240":{"name":"Ulj\u00f3s: Kringlum\u00fdrabraut - B\u00fasta\u00f0","url":"\/locations\/240","devices":"1","image":"\/datastore\/image\/\/thumb1","address":null,"lat":"64.126022","lng":"-21.898371","icon":"http:\/\/chart.apis.google.com\/chart?cht=mm&chs=20x20&chco=15ff00,15ff00,000000&ext=.png","icon_size":"20x20","icon_width":"20","icon_height":"20","icon_anchor_width":10,"icon_anchor_height":"20","zindex":1},"241":{"name":"Ulj\u00f3s: Hafnarfjar\u00f0arvegur - Arna","url":"\/locations\/241","devices":"1","image":"\/datastore\/image\/\/thumb1","address":null,"lat":"64.099449","lng":"-21.914486","icon":"http:\/\/chart.apis.google.com\/chart?cht=mm&chs=20x20&chco=15ff00,15ff00,000000&ext=.png","icon_size":"20x20","icon_width":"20","icon_height":"20","icon_anchor_width":10,"icon_anchor_height":"20","zindex":1},"242":{"name":"Ulj\u00f3s: H\u00e1aleitisbraut-Fellsm\u00fali ","url":"\/locations\/242","devices":"1","image":"\/datastore\/image\/\/thumb1","address":null,"lat":"64.132011","lng":"-21.882833","icon":"http:\/\/chart.apis.google.com\/chart?cht=mm&chs=20x20&chco=15ff00,15ff00,000000&ext=.png","icon_size":"20x20","icon_width":"20","icon_height":"20","icon_anchor_width":10,"icon_anchor_height":"20","zindex":1},"243":{"name":"LSR Laufsk\u00e1lar","url":"\/locations\/243","devices":"1","image":"\/datastore\/image\/\/thumb1","address":null,"lat":"64.147202","lng":"-21.788174","icon":"http:\/\/chart.apis.google.com\/chart?cht=mm&chs=20x20&chco=00a6ff,00a6ff,000000&ext=.png","icon_size":"20x20","icon_width":"20","icon_height":"20","icon_anchor_width":10,"icon_anchor_height":"20","zindex":1},"244":{"name":"Ulj\u00f3s: Su\u00f0urlandsbraut - Grens\u00e1s","url":"\/locations\/244","devices":"1","image":"\/datastore\/image\/\/thumb1","address":null,"lat":"64.134201","lng":"-21.870625","icon":"http:\/\/chart.apis.google.com\/chart?cht=mm&chs=20x20&chco=15ff00,15ff00,000000&ext=.png","icon_size":"20x20","icon_width":"20","icon_height":"20","icon_anchor_width":10,"icon_anchor_height":"20","zindex":1},"434":{"name":"Borgask\u00f3li - Tengipunktur","url":"\/locations\/434","devices":"0","image":"\/datastore\/image\/\/thumb1","address":null,"lat":"64.153175","lng":"-21.791800","icon":"http:\/\/chart.apis.google.com\/chart?cht=mm&chs=20x20&chco=FF00FF,FF00FF,000000&ext=.png","icon_size":"20x20","icon_width":"20","icon_height":"20","icon_anchor_width":10,"icon_anchor_height":"20","zindex":1},"246":{"name":"Ulj\u00f3s: Vegager\u00f0in Borgart\u00fani","url":"\/locations\/246","devices":"0","image":"\/datastore\/image\/\/thumb1","address":null,"lat":"64.145561","lng":"-21.910269","icon":"http:\/\/chart.apis.google.com\/chart?cht=mm&chs=20x20&chco=15ff00,15ff00,000000&ext=.png","icon_size":"20x20","icon_width":"20","icon_height":"20","icon_anchor_width":10,"icon_anchor_height":"20","zindex":1},"247":{"name":"Faxafl\u00f3ahafnir - Akranesh\u00f6fn","url":"\/locations\/247","devices":"1","image":"\/datastore\/image\/\/thumb1","address":null,"lat":"64.315323","lng":"-22.084772","icon":"http:\/\/chart.apis.google.com\/chart?cht=mm&chs=20x20&chco=FF00FF,FF00FF,000000&ext=.png","icon_size":"20x20","icon_width":"20","icon_height":"20","icon_anchor_width":10,"icon_anchor_height":"20","zindex":1},"248":{"name":"Stj\u00f6rnuport - Bilsj","url":"\/locations\/248","devices":"1","image":"\/datastore\/image\/\/thumb1","address":null,"lat":"64.143341","lng":"-21.917971","icon":"http:\/\/chart.apis.google.com\/chart?cht=mm&chs=20x20&chco=FF00FF,FF00FF,000000&ext=.png","icon_size":"20x20","icon_width":"20","icon_height":"20","icon_anchor_width":10,"icon_anchor_height":"20","zindex":1},"249":{"name":"Vesturgata 7 - Bilsj","url":"\/locations\/249","devices":"2","image":"\/datastore\/image\/444ff31384c17455b055d7e6bd42675b\/thumb1","address":null,"lat":"64.149132","lng":"-21.943045","icon":"http:\/\/chart.apis.google.com\/chart?cht=mm&chs=20x20&chco=FF00FF,FF00FF,000000&ext=.png","icon_size":"20x20","icon_width":"20","icon_height":"20","icon_anchor_width":10,"icon_anchor_height":"20","zindex":1},"250":{"name":"Kolaport - Bilsj","url":"\/locations\/250","devices":"2","image":"\/datastore\/image\/\/thumb1","address":null,"lat":"64.148682","lng":"-21.933130","icon":"http:\/\/chart.apis.google.com\/chart?cht=mm&chs=20x20&chco=FF00FF,FF00FF,000000&ext=.png","icon_size":"20x20","icon_width":"20","icon_height":"20","icon_anchor_width":10,"icon_anchor_height":"20","zindex":1},"251":{"name":"Bergsta\u00f0ir - Bilsj","url":"\/locations\/251","devices":"2","image":"\/datastore\/image\/\/thumb1","address":null,"lat":"64.145615","lng":"-21.932949","icon":"http:\/\/chart.apis.google.com\/chart?cht=mm&chs=20x20&chco=FF00FF,FF00FF,000000&ext=.png","icon_size":"20x20","icon_width":"20","icon_height":"20","icon_anchor_width":10,"icon_anchor_height":"20","zindex":1},"252":{"name":"Tra\u00f0arkot - Bilsj","url":"\/locations\/252","devices":"2","image":"\/datastore\/image\/73582cbd99cf6fff6380d5f831239795\/thumb1","address":null,"lat":"64.146637","lng":"-21.931007","icon":"http:\/\/chart.apis.google.com\/chart?cht=mm&chs=20x20&chco=FF00FF,FF00FF,000000&ext=.png","icon_size":"20x20","icon_width":"20","icon_height":"20","icon_anchor_width":10,"icon_anchor_height":"20","zindex":1},"253":{"name":"R\u00e1\u00f0h\u00faskjallari - Bilsj","url":"\/locations\/253","devices":"2","image":"\/datastore\/image\/\/thumb1","address":null,"lat":"64.146049","lng":"-21.942101","icon":"http:\/\/chart.apis.google.com\/chart?cht=mm&chs=20x20&chco=FF00FF,FF00FF,000000&ext=.png","icon_size":"20x20","icon_width":"20","icon_height":"20","icon_anchor_width":10,"icon_anchor_height":"20","zindex":1},"254":{"name":"Vitatorg - Bilsj","url":"\/locations\/254","devices":"2","image":"\/datastore\/image\/\/thumb1","address":null,"lat":"64.144997","lng":"-21.921288","icon":"http:\/\/chart.apis.google.com\/chart?cht=mm&chs=20x20&chco=FF00FF,FF00FF,000000&ext=.png","icon_size":"20x20","icon_width":"20","icon_height":"20","icon_anchor_width":10,"icon_anchor_height":"20","zindex":1},"255":{"name":"Ulj\u00f3s: Snorrabraut-Gamla Hringbr","url":"\/locations\/255","devices":"1","image":"\/datastore\/image\/\/thumb1","address":null,"lat":"64.136826","lng":"-21.923218","icon":"http:\/\/chart.apis.google.com\/chart?cht=mm&chs=20x20&chco=15ff00,15ff00,000000&ext=.png","icon_size":"20x20","icon_width":"20","icon_height":"20","icon_anchor_width":10,"icon_anchor_height":"20","zindex":1},"256":{"name":"Ing\u00f3lfsnaust - Samt\u00f6k mi\u00f0borgar","url":"\/locations\/256","devices":"1","image":"\/datastore\/image\/\/thumb1","address":null,"lat":"64.148560","lng":"-21.942036","icon":"http:\/\/chart.apis.google.com\/chart?cht=mm&chs=20x20&chco=FF00FF,FF00FF,000000&ext=.png","icon_size":"20x20","icon_width":"20","icon_height":"20","icon_anchor_width":10,"icon_anchor_height":"20","zindex":1},"257":{"name":"\u00c1smundarsafn","url":"\/locations\/257","devices":"1","image":"\/datastore\/image\/06209baeb803dcdc7455deae782e6001\/thumb1","address":null,"lat":"64.141632","lng":"-21.885242","icon":"http:\/\/chart.apis.google.com\/chart?cht=mm&chs=20x20&chco=FF00FF,FF00FF,000000&ext=.png","icon_size":"20x20","icon_width":"20","icon_height":"20","icon_anchor_width":10,"icon_anchor_height":"20","zindex":1},"258":{"name":"Landakotssk\u00f3li","url":"\/locations\/258","devices":"2","image":"\/datastore\/image\/\/thumb1","address":null,"lat":"64.147827","lng":"-21.949568","icon":"http:\/\/chart.apis.google.com\/chart?cht=mm&chs=20x20&chco=FF00FF,FF00FF,000000&ext=.png","icon_size":"20x20","icon_width":"20","icon_height":"20","icon_anchor_width":10,"icon_anchor_height":"20","zindex":1},"259":{"name":"Nj\u00e1lsgata 74","url":"\/locations\/259","devices":"1","image":"\/datastore\/image\/\/thumb1","address":null,"lat":"64.142258","lng":"-21.919302","icon":"http:\/\/chart.apis.google.com\/chart?cht=mm&chs=20x20&chco=FF00FF,FF00FF,000000&ext=.png","icon_size":"20x20","icon_width":"20","icon_height":"20","icon_anchor_width":10,"icon_anchor_height":"20","zindex":1},"261":{"name":"Verkb\u00e6kist\u00f6\u00f0 2","url":"\/locations\/261","devices":"2","image":"\/datastore\/image\/\/thumb1","address":null,"lat":"64.118034","lng":"-21.824877","icon":"http:\/\/chart.apis.google.com\/chart?cht=mm&chs=20x20&chco=FF00FF,FF00FF,000000&ext=.png","icon_size":"20x20","icon_width":"20","icon_height":"20","icon_anchor_width":10,"icon_anchor_height":"20","zindex":1},"262":{"name":"H\u00f6f\u00f0atorg - Hn\u00fatpunktur","url":"\/locations\/262","devices":"1","image":"\/datastore\/image\/\/thumb1","address":null,"lat":"64.145020","lng":"-21.908283","icon":"http:\/\/chart.apis.google.com\/chart?cht=mm&chs=20x20&chco=FF00FF,FF00FF,000000&ext=.png","icon_size":"20x20","icon_width":"20","icon_height":"20","icon_anchor_width":10,"icon_anchor_height":"20","zindex":1},"263":{"name":"H\u00f6f\u00f0atorg","url":"\/locations\/263","devices":"19","image":"\/datastore\/image\/\/thumb1","address":null,"lat":"64.145035","lng":"-21.908316","icon":"http:\/\/chart.apis.google.com\/chart?cht=mm&chs=20x20&chco=FF00FF,FF00FF,000000&ext=.png","icon_size":"20x20","icon_width":"20","icon_height":"20","icon_anchor_width":10,"icon_anchor_height":"20","zindex":1},"264":{"name":"Ulj\u00f3s: Fjar\u00f0arhraun \u2013 H\u00f3lshraun","url":"\/locations\/264","devices":"1","image":"\/datastore\/image\/\/thumb1","address":null,"lat":"64.081245","lng":"-21.941799","icon":"http:\/\/chart.apis.google.com\/chart?cht=mm&chs=20x20&chco=15ff00,15ff00,000000&ext=.png","icon_size":"20x20","icon_width":"20","icon_height":"20","icon_anchor_width":10,"icon_anchor_height":"20","zindex":1},"265":{"name":"LSR Laugaborg","url":"\/locations\/265","devices":"0","image":"\/datastore\/image\/ca6fc5618e0a9c6c2a7653557b4de13e\/thumb1","address":null,"lat":"64.148979","lng":"-21.877953","icon":"http:\/\/chart.apis.google.com\/chart?cht=mm&chs=20x20&chco=00a6ff,00a6ff,000000&ext=.png","icon_size":"20x20","icon_width":"20","icon_height":"20","icon_anchor_width":10,"icon_anchor_height":"20","zindex":1},"267":{"name":"Tollurinn","url":"\/locations\/267","devices":"1","image":"\/datastore\/image\/0e5692938d2b7ff98d794c86f7d9f978\/thumb1","address":null,"lat":"64.153931","lng":"-21.877222","icon":"http:\/\/chart.apis.google.com\/chart?cht=mm&chs=20x20&chco=FF00FF,FF00FF,000000&ext=.png","icon_size":"20x20","icon_width":"20","icon_height":"20","icon_anchor_width":10,"icon_anchor_height":"20","zindex":1},"268":{"name":"\u00de\u00f3r\u00f0arsveig 3","url":"\/locations\/268","devices":"1","image":"\/datastore\/image\/\/thumb1","address":null,"lat":"64.126701","lng":"-21.746223","icon":"http:\/\/chart.apis.google.com\/chart?cht=mm&chs=20x20&chco=FF00FF,FF00FF,000000&ext=.png","icon_size":"20x20","icon_width":"20","icon_height":"20","icon_anchor_width":10,"icon_anchor_height":"20","zindex":1},"269":{"name":"\u00cdTR - Frostaskj\u00f3l - Seli\u00f0","url":"\/locations\/269","devices":"1","image":"\/datastore\/image\/\/thumb1","address":null,"lat":"64.142090","lng":"-21.956564","icon":"http:\/\/chart.apis.google.com\/chart?cht=mm&chs=20x20&chco=FF00FF,FF00FF,000000&ext=.png","icon_size":"20x20","icon_width":"20","icon_height":"20","icon_anchor_width":10,"icon_anchor_height":"20","zindex":1},"270":{"name":"SEM H\u00fasi\u00f0","url":"\/locations\/270","devices":"0","image":"\/datastore\/image\/7a4435852d53ab4a974965f6199ecc6b\/thumb1","address":null,"lat":"64.123016","lng":"-21.896782","icon":"http:\/\/chart.apis.google.com\/chart?cht=mm&chs=20x20&chco=FF00FF,FF00FF,000000&ext=.png","icon_size":"20x20","icon_width":"20","icon_height":"20","icon_anchor_width":10,"icon_anchor_height":"20","zindex":1},"271":{"name":"\u00cdTR - Stj\u00f6rnuland","url":"\/locations\/271","devices":"1","image":"\/datastore\/image\/\/thumb1","address":null,"lat":"64.126328","lng":"-21.756653","icon":"http:\/\/chart.apis.google.com\/chart?cht=mm&chs=20x20&chco=FF00FF,FF00FF,000000&ext=.png","icon_size":"20x20","icon_width":"20","icon_height":"20","icon_anchor_width":10,"icon_anchor_height":"20","zindex":1},"272":{"name":"VEL - Dalbraut 23","url":"\/locations\/272","devices":"1","image":"\/datastore\/image\/\/thumb1","address":null,"lat":"64.147293","lng":"-21.872835","icon":"http:\/\/chart.apis.google.com\/chart?cht=mm&chs=20x20&chco=FF00FF,FF00FF,000000&ext=.png","icon_size":"20x20","icon_width":"20","icon_height":"20","icon_anchor_width":10,"icon_anchor_height":"20","zindex":1},"273":{"name":"\u00dej\u00f3nustumi\u00f0st\u00f6\u00f0 - Furuger\u00f0i","url":"\/locations\/273","devices":"1","image":"\/datastore\/image\/\/thumb1","address":null,"lat":"64.124870","lng":"-21.882812","icon":"http:\/\/chart.apis.google.com\/chart?cht=mm&chs=20x20&chco=FF00FF,FF00FF,000000&ext=.png","icon_size":"20x20","icon_width":"20","icon_height":"20","icon_anchor_width":10,"icon_anchor_height":"20","zindex":1},"274":{"name":"\u00cdTR - Fj\u00f6lskyldu og H\u00fasd\u00fdragar\u00f0u","url":"\/locations\/274","devices":"4","image":"\/datastore\/image\/\/thumb1","address":null,"lat":"64.138016","lng":"-21.865631","icon":"http:\/\/chart.apis.google.com\/chart?cht=mm&chs=20x20&chco=FF00FF,FF00FF,000000&ext=.png","icon_size":"20x20","icon_width":"20","icon_height":"20","icon_anchor_width":10,"icon_anchor_height":"20","zindex":1},"427":{"name":"LSR M\u00fdri","url":"\/locations\/427","devices":"0","image":"\/datastore\/image\/\/thumb1","address":null,"lat":"64.134346","lng":"-21.949408","icon":"http:\/\/chart.apis.google.com\/chart?cht=mm&chs=20x20&chco=00a6ff,00a6ff,000000&ext=.png","icon_size":"20x20","icon_width":"20","icon_height":"20","icon_anchor_width":10,"icon_anchor_height":"20","zindex":1},"276":{"name":"Vinnusk\u00f3linn lager","url":"\/locations\/276","devices":"1","image":"\/datastore\/image\/\/thumb1","address":null,"lat":"64.125359","lng":"-21.948786","icon":"http:\/\/chart.apis.google.com\/chart?cht=mm&chs=20x20&chco=FF00FF,FF00FF,000000&ext=.png","icon_size":"20x20","icon_width":"20","icon_height":"20","icon_anchor_width":10,"icon_anchor_height":"20","zindex":1},"277":{"name":"H\u00f6f\u00f0atorg - T\u00e6knir\u00fdmi","url":"\/locations\/277","devices":"22","image":"\/datastore\/image\/\/thumb1","address":null,"lat":"64.145027","lng":"-21.908325","icon":"http:\/\/chart.apis.google.com\/chart?cht=mm&chs=20x20&chco=FF00FF,FF00FF,000000&ext=.png","icon_size":"20x20","icon_width":"20","icon_height":"20","icon_anchor_width":10,"icon_anchor_height":"20","zindex":1},"278":{"name":"\u00cdTR - Engyn","url":"\/locations\/278","devices":"1","image":"\/datastore\/image\/\/thumb1","address":null,"lat":"64.149269","lng":"-21.776415","icon":"http:\/\/chart.apis.google.com\/chart?cht=mm&chs=20x20&chco=FF00FF,FF00FF,000000&ext=.png","icon_size":"20x20","icon_width":"20","icon_height":"20","icon_anchor_width":10,"icon_anchor_height":"20","zindex":1},"279":{"name":"VEL - Starengi 6","url":"\/locations\/279","devices":"1","image":"\/datastore\/image\/e44d11d6370980c7dbf69fd216b42bf0\/thumb1","address":null,"lat":"64.151077","lng":"-21.774881","icon":"http:\/\/chart.apis.google.com\/chart?cht=mm&chs=20x20&chco=FF00FF,FF00FF,000000&ext=.png","icon_size":"20x20","icon_width":"20","icon_height":"20","icon_anchor_width":10,"icon_anchor_height":"20","zindex":1},"280":{"name":"Ulj\u00f3s: B\u00fasta\u00f0avegur-Litlahl\u00ed\u00f0 (1","url":"\/locations\/280","devices":"1","image":"\/datastore\/image\/\/thumb1","address":null,"lat":"64.130554","lng":"-21.915482","icon":"http:\/\/chart.apis.google.com\/chart?cht=mm&chs=20x20&chco=FF00FF,FF00FF,000000&ext=.png","icon_size":"20x20","icon_width":"20","icon_height":"20","icon_anchor_width":10,"icon_anchor_height":"20","zindex":1},"281":{"name":"Ulj\u00f3s: B\u00fasta\u00f0avegur-Su\u00f0urhl\u00ed\u00f0 (1","url":"\/locations\/281","devices":"1","image":"\/datastore\/image\/\/thumb1","address":null,"lat":"64.127670","lng":"-21.908499","icon":"http:\/\/chart.apis.google.com\/chart?cht=mm&chs=20x20&chco=FF00FF,FF00FF,000000&ext=.png","icon_size":"20x20","icon_width":"20","icon_height":"20","icon_anchor_width":10,"icon_anchor_height":"20","zindex":1},"282":{"name":"Ulj\u00f3s: B\u00fasta\u00f0avegur-Kringlum\u00fdrar","url":"\/locations\/282","devices":"1","image":"\/datastore\/image\/\/thumb1","address":null,"lat":"64.126068","lng":"-21.898520","icon":"http:\/\/chart.apis.google.com\/chart?cht=mm&chs=20x20&chco=FF00FF,FF00FF,000000&ext=.png","icon_size":"20x20","icon_width":"20","icon_height":"20","icon_anchor_width":10,"icon_anchor_height":"20","zindex":1},"283":{"name":"Ulj\u00f3s: B\u00fasta\u00f0avegur-H\u00e1aleitisbra","url":"\/locations\/283","devices":"1","image":"\/datastore\/image\/\/thumb1","address":null,"lat":"64.124397","lng":"-21.890022","icon":"http:\/\/chart.apis.google.com\/chart?cht=mm&chs=20x20&chco=FF00FF,FF00FF,000000&ext=.png","icon_size":"20x20","icon_width":"20","icon_height":"20","icon_anchor_width":10,"icon_anchor_height":"20","zindex":1},"284":{"name":"Ulj\u00f3s: B\u00fasta\u00f0avegur-Grens\u00e1svegur","url":"\/locations\/284","devices":"0","image":"\/datastore\/image\/\/thumb1","address":null,"lat":"64.123032","lng":"-21.880344","icon":"http:\/\/chart.apis.google.com\/chart?cht=mm&chs=20x20&chco=FF00FF,FF00FF,000000&ext=.png","icon_size":"20x20","icon_width":"20","icon_height":"20","icon_anchor_width":10,"icon_anchor_height":"20","zindex":1},"285":{"name":"Ulj\u00f3s: Grens\u00e1svegur-H\u00e6\u00f0argar\u00f0ur ","url":"\/locations\/285","devices":"0","image":"\/datastore\/image\/\/thumb1","address":null,"lat":"64.124802","lng":"-21.879314","icon":"http:\/\/chart.apis.google.com\/chart?cht=mm&chs=20x20&chco=FF00FF,FF00FF,000000&ext=.png","icon_size":"20x20","icon_width":"20","icon_height":"20","icon_anchor_width":10,"icon_anchor_height":"20","zindex":1},"286":{"name":"Ulj\u00f3s: B\u00fasta\u00f0avegur-R\u00e9ttarholtsv","url":"\/locations\/286","devices":"0","image":"\/datastore\/image\/\/thumb1","address":null,"lat":"64.121964","lng":"-21.869751","icon":"http:\/\/chart.apis.google.com\/chart?cht=mm&chs=20x20&chco=FF00FF,FF00FF,000000&ext=.png","icon_size":"20x20","icon_width":"20","icon_height":"20","icon_anchor_width":10,"icon_anchor_height":"20","zindex":1},"287":{"name":"Ulj\u00f3s: B\u00fasta\u00f0avegur-\u00d3sland (1861","url":"\/locations\/287","devices":"1","image":"\/datastore\/image\/\/thumb1","address":null,"lat":"64.120659","lng":"-21.859756","icon":"http:\/\/chart.apis.google.com\/chart?cht=mm&chs=20x20&chco=FF00FF,FF00FF,000000&ext=.png","icon_size":"20x20","icon_width":"20","icon_height":"20","icon_anchor_width":10,"icon_anchor_height":"20","zindex":1},"288":{"name":"Ulj\u00f3s: B\u00fasta\u00f0avegur-Sogavegur (1","url":"\/locations\/288","devices":"1","image":"\/datastore\/image\/\/thumb1","address":null,"lat":"64.120636","lng":"-21.853899","icon":"http:\/\/chart.apis.google.com\/chart?cht=mm&chs=20x20&chco=FF00FF,FF00FF,000000&ext=.png","icon_size":"20x20","icon_width":"20","icon_height":"20","icon_anchor_width":10,"icon_anchor_height":"20","zindex":1},"289":{"name":"Ulj\u00f3s: Reykjanesbraut-B\u00fasta\u00f0aveg","url":"\/locations\/289","devices":"1","image":"\/datastore\/image\/\/thumb1","address":null,"lat":"64.120216","lng":"-21.846764","icon":"http:\/\/chart.apis.google.com\/chart?cht=mm&chs=20x20&chco=15ff00,15ff00,000000&ext=.png","icon_size":"20x20","icon_width":"20","icon_height":"20","icon_anchor_width":10,"icon_anchor_height":"20","zindex":1},"290":{"name":"Ulj\u00f3s: Arnarnesvegur-Hafnarfjar\u00f0","url":"\/locations\/290","devices":"1","image":"\/datastore\/image\/\/thumb1","address":null,"lat":"64.099457","lng":"-21.914425","icon":"http:\/\/chart.apis.google.com\/chart?cht=mm&chs=20x20&chco=15ff00,15ff00,000000&ext=.png","icon_size":"20x20","icon_width":"20","icon_height":"20","icon_anchor_width":10,"icon_anchor_height":"20","zindex":1},"291":{"name":"Ulj\u00f3s: Holtavegur-Vatnagar\u00f0ar (0","url":"\/locations\/291","devices":"0","image":"\/datastore\/image\/\/thumb1","address":null,"lat":"64.140800","lng":"-21.848845","icon":"http:\/\/chart.apis.google.com\/chart?cht=mm&chs=20x20&chco=15ff00,15ff00,000000&ext=.png","icon_size":"20x20","icon_width":"20","icon_height":"20","icon_anchor_width":10,"icon_anchor_height":"20","zindex":1},"292":{"name":"USR - R\u00e6ktunarst\u00f6\u00f0 Fossvogi","url":"\/locations\/292","devices":"1","image":"\/datastore\/image\/\/thumb1","address":null,"lat":"64.119087","lng":"-21.894754","icon":"http:\/\/chart.apis.google.com\/chart?cht=mm&chs=20x20&chco=FF00FF,FF00FF,000000&ext=.png","icon_size":"20x20","icon_width":"20","icon_height":"20","icon_anchor_width":10,"icon_anchor_height":"20","zindex":1},"293":{"name":"LSR Lyngheimar","url":"\/locations\/293","devices":"1","image":"\/datastore\/image\/\/thumb1","address":null,"lat":"64.144524","lng":"-21.790459","icon":"http:\/\/chart.apis.google.com\/chart?cht=mm&chs=20x20&chco=00a6ff,00a6ff,000000&ext=.png","icon_size":"20x20","icon_width":"20","icon_height":"20","icon_anchor_width":10,"icon_anchor_height":"20","zindex":1},"294":{"name":"LSR L\u00e6kjaborg","url":"\/locations\/294","devices":"1","image":"\/datastore\/image\/c0a73120ed6284076b1a90fe163a63fb\/thumb1","address":null,"lat":"64.148254","lng":"-21.877804","icon":"http:\/\/chart.apis.google.com\/chart?cht=mm&chs=20x20&chco=00a6ff,00a6ff,000000&ext=.png","icon_size":"20x20","icon_width":"20","icon_height":"20","icon_anchor_width":10,"icon_anchor_height":"20","zindex":1},"295":{"name":"LSR Sunnuborg","url":"\/locations\/295","devices":"1","image":"\/datastore\/image\/cb1764392911cab96462a57f935d05aa\/thumb1","address":null,"lat":"64.134689","lng":"-21.857128","icon":"http:\/\/chart.apis.google.com\/chart?cht=mm&chs=20x20&chco=00a6ff,00a6ff,000000&ext=.png","icon_size":"20x20","icon_width":"20","icon_height":"20","icon_anchor_width":10,"icon_anchor_height":"20","zindex":1},